[
    {
        "name": "İstanbul Surları",
        "description": "No description available",
        "location": "Türkiye/İstanbul",
        "coordinates": {
            "latitude": 41.0142069,
            "longitude": 28.9312722
        },
        "tags": [
            "attraction"
        ]
    },
    {
        "name": "Ayasofya-i Kebir Câmi-i Şerifi",
        "description": "No description available",
        "location": "Türkiye/İstanbul",
        "coordinates": {
            "latitude": 41.0084634,
            "longitude": 28.9798633
        },
        "tags": [
            "museum"
        ]
    },
    {
        "name": "Fatih Camii",
        "description": "No description available",
        "location": "Istanbul",
        "coordinates": {
            "latitude": 41.0197482,
            "longitude": 28.9497619
        },
        "tags": [
            "attraction",
            "place_of_worship"
        ]
    },
    {
        "name": "Rahmi M. Koç Müzesi",
        "description": "No description available",
        "location": "Türkiye/İstanbul",
        "coordinates": {
            "latitude": 41.0420763,
            "longitude": 28.9484777
        },
        "tags": [
            "museum"
        ]
    },
    {
        "name": "TCG Uluçalireis",
        "description": "No description available",
        "location": "Türkiye/İstanbul",
        "coordinates": {
            "latitude": 41.0414334,
            "longitude": 28.947617
        },
        "tags": [
            "attraction",
            "ship"
        ]
    },
    {
        "name": "Kız Kulesi",
        "description": "No description available",
        "location": "İstanbul",
        "coordinates": {
            "latitude": 41.0211108,
            "longitude": 29.0040638
        },
        "tags": [
            "attraction"
        ]
    },
    {
        "name": "Taksim Meydanı",
        "description": "No description available",
        "location": "Türkiye/İstanbul",
        "coordinates": {
            "latitude": 41.0378688,
            "longitude": 28.985615
        },
        "tags": [
            "attraction"
        ]
    },
    {
        "name": "Fenerbahçe",
        "description": "No description available",
        "location": "Türkiye/İstanbul",
        "coordinates": {
            "latitude": 41.0414658,
            "longitude": 28.9477902
        },
        "tags": [
            "attraction",
            "ship"
        ]
    },
    {
        "name": "Marmara Üniversitesi Cumhuriyet Müzesi",
        "description": "No description available",
        "location": "Türkiye/İstanbul",
        "coordinates": {
            "latitude": 41.0048417,
            "longitude": 28.97413
        },
        "tags": [
            "museum"
        ]
    },
    {
        "name": "Aya İrini Kilisesi",
        "description": "No description available",
        "location": "İstanbul",
        "coordinates": {
            "latitude": 41.0098292,
            "longitude": 28.9809477
        },
        "tags": [
            "museum",
            "yes"
        ]
    },
    {
        "name": "Rumeli Hisarı",
        "description": "No description available",
        "location": "Türkiye/İstanbul",
        "coordinates": {
            "latitude": 41.0849152,
            "longitude": 29.0560944
        },
        "tags": [
            "museum",
            "castle"
        ]
    },
    {
        "name": "Yavuz Sultan Selim Cami",
        "description": "No description available",
        "location": "İstanbul",
        "coordinates": {
            "latitude": 41.0266074,
            "longitude": 28.9512953
        },
        "tags": [
            "attraction",
            "place_of_worship"
        ]
    },
    {
        "name": "Şehzadebaşı Camii",
        "description": "No description available",
        "location": "İstanbul",
        "coordinates": {
            "latitude": 41.0138862,
            "longitude": 28.9570828
        },
        "tags": [
            "attraction",
            "place_of_worship"
        ]
    },
    {
        "name": "ISG Airport Hotel Istanbul",
        "description": "No description available",
        "location": "Türkiye/İstanbul",
        "coordinates": {
            "latitude": 40.9063376,
            "longitude": 29.3131598
        },
        "tags": [
            "hotel"
        ]
    },
    {
        "name": "Atatürk Arboretumu",
        "description": "No description available",
        "location": "İstanbul",
        "coordinates": {
            "latitude": 41.1770246,
            "longitude": 28.9824534
        },
        "tags": [
            "attraction",
            "garden"
        ]
    },
    {
        "name": "Beylerbeyi Sarayı Kompleksi",
        "description": "No description available",
        "location": "Türkiye/İstanbul",
        "coordinates": {
            "latitude": 41.0422156,
            "longitude": 29.040508
        },
        "tags": [
            "museum"
        ]
    },
    {
        "name": "Sultanahmet Camii",
        "description": "No description available",
        "location": "İstanbul",
        "coordinates": {
            "latitude": 41.0054066,
            "longitude": 28.9766495
        },
        "tags": [
            "attraction",
            "mosque",
            "place_of_worship"
        ]
    },
    {
        "name": "Nuruosmaniye Camisi",
        "description": "No description available",
        "location": "Türkiye/İstanbul",
        "coordinates": {
            "latitude": 41.0104074,
            "longitude": 28.9703815
        },
        "tags": [
            "attraction",
            "yes",
            "place_of_worship"
        ]
    },
    {
        "name": "Taşdelen Mesire Alanı",
        "description": "No description available",
        "location": "Türkiye/İstanbul",
        "coordinates": {
            "latitude": 41.0414263,
            "longitude": 29.2219466
        },
        "tags": [
            "picnic_site"
        ]
    }
]