[
    {
        "name": "Barbaros Hayrettin Türbesi",
        "description": "No description available",
        "location": "Türkiye/İstanbul",
        "coordinates": {
            "latitude": 41.0419227,
            "longitude": 29.0068359
        },
        "tags": [
            "memorial"
        ]
    },
    {
        "name": "Yılanlı Sütun",
        "description": "No description available",
        "location": "Türkiye/İstanbul",
        "coordinates": {
            "latitude": 41.0056649,
            "longitude": 28.9751101
        },
        "tags": [
            "attraction",
            "column"
        ]
    },
    {
        "name": "Unknown Place",
        "description": "No description available",
        "location": "Türkiye/İstanbul",
        "coordinates": {
            "latitude": 40.9998226,
            "longitude": 28.9205403
        },
        "tags": [
            "city_gate"
        ]
    },
    {
        "name": "BJK 100 Yıl Kartal Heykeli",
        "description": "No description available",
        "location": "Türkiye/İstanbul",
        "coordinates": {
            "latitude": 41.0435474,
            "longitude": 29.0041967
        },
        "tags": [
            "monument"
        ]
    },
    {
        "name": "Hatice Turhan Sultan Türbesi",
        "description": "No description available",
        "location": "Türkiye/İstanbul",
        "coordinates": {
            "latitude": 41.0162025,
            "longitude": 28.9719047
        },
        "tags": [
            "monument"
        ]
    },
    {
        "name": "Magnaura Sarayı",
        "description": "No description available",
        "location": "Türkiye/İstanbul",
        "coordinates": {
            "latitude": 41.0054477,
            "longitude": 28.9796589
        },
        "tags": [
            "ruins"
        ]
    },
    {
        "name": "ancient Substructures Hippodrom",
        "description": "No description available",
        "location": "Türkiye/İstanbul",
        "coordinates": {
            "latitude": 41.00408,
            "longitude": 28.9733493
        },
        "tags": [
            "archaeological_site"
        ]
    },
    {
        "name": "Milyon Taşı",
        "description": "No description available",
        "location": "Türkiye/İstanbul",
        "coordinates": {
            "latitude": 41.0080674,
            "longitude": 28.9780181
        },
        "tags": [
            "monument"
        ]
    },
    {
        "name": "Garipçe Kalesi",
        "description": "No description available",
        "location": "Türkiye/İstanbul",
        "coordinates": {
            "latitude": 41.2140768,
            "longitude": 29.1106021
        },
        "tags": [
            "viewpoint",
            "castle"
        ]
    },
    {
        "name": "Pompeus Sütunu / Roke Kayalıkları",
        "description": "No description available",
        "location": "Türkiye/İstanbul",
        "coordinates": {
            "latitude": 41.23394,
            "longitude": 29.1157573
        },
        "tags": [
            "ruins"
        ]
    },
    {
        "name": "Rumeli Kavağı Tabyaları",
        "description": "No description available",
        "location": "Türkiye/İstanbul",
        "coordinates": {
            "latitude": 41.1820279,
            "longitude": 29.0746658
        },
        "tags": [
            "castle"
        ]
    },
    {
        "name": "Ancient Roman Ruins",
        "description": "No description available",
        "location": "Türkiye/İstanbul",
        "coordinates": {
            "latitude": 41.0010689,
            "longitude": 28.6905849
        },
        "tags": [
            "ruins"
        ]
    },
    {
        "name": "Büyükçekmece Kervansaray (Kurşunlu Han)",
        "description": "No description available",
        "location": "Türkiye/İstanbul",
        "coordinates": {
            "latitude": 41.0219982,
            "longitude": 28.5757305
        },
        "tags": [
            "monument"
        ]
    },
    {
        "name": "Cumhuriyet Anıtı",
        "description": "No description available",
        "location": "Türkiye/İstanbul",
        "coordinates": {
            "latitude": 41.0369723,
            "longitude": 28.9851248
        },
        "tags": [
            "memorial"
        ]
    },
    {
        "name": "Unknown Place",
        "description": "No description available",
        "location": "Türkiye/İstanbul",
        "coordinates": {
            "latitude": 41.0278636,
            "longitude": 28.9562868
        },
        "tags": [
            "city_gate"
        ]
    },
    {
        "name": "Sadun Boro Heykeli",
        "description": "No description available",
        "location": "Türkiye/İstanbul",
        "coordinates": {
            "latitude": 40.9766053,
            "longitude": 29.0411538
        },
        "tags": [
            "memorial"
        ]
    },
    {
        "name": "Unknown Place",
        "description": "No description available",
        "location": "Türkiye/İstanbul",
        "coordinates": {
            "latitude": 40.9694217,
            "longitude": 29.0374491
        },
        "tags": [
            "memorial"
        ]
    },
    {
        "name": "Lefter Küçükandonyadis Heykeli",
        "description": "No description available",
        "location": "Türkiye/İstanbul",
        "coordinates": {
            "latitude": 40.9864334,
            "longitude": 29.0339763
        },
        "tags": [
            "memorial"
        ]
    },
    {
        "name": "Yunus Emre Heykeli",
        "description": "No description available",
        "location": "Türkiye/İstanbul",
        "coordinates": {
            "latitude": 40.9852779,
            "longitude": 29.0336422
        },
        "tags": [
            "memorial"
        ]
    },
    {
        "name": "Süreyya İlmen Heykeli",
        "description": "No description available",
        "location": "Türkiye/İstanbul",
        "coordinates": {
            "latitude": 40.9869314,
            "longitude": 29.0337289
        },
        "tags": [
            "memorial"
        ]
    },
    {
        "name": "Atatürk Anıtı",
        "description": "No description available",
        "location": "Türkiye/İstanbul",
        "coordinates": {
            "latitude": 40.980354,
            "longitude": 29.0239767
        },
        "tags": [
            "memorial"
        ]
    },
    {
        "name": "Osmanlı Hamam Kalıntısı",
        "description": "No description available",
        "location": "Türkiye/İstanbul",
        "coordinates": {
            "latitude": 40.987487,
            "longitude": 29.028564
        },
        "tags": [
            "ruins"
        ]
    },
    {
        "name": "Atatürk Anıtı",
        "description": "No description available",
        "location": "Türkiye/İstanbul",
        "coordinates": {
            "latitude": 40.9812845,
            "longitude": 29.0211319
        },
        "tags": [
            "memorial"
        ]
    },
    {
        "name": "Alex de Souza Heykeli",
        "description": "No description available",
        "location": "Türkiye/İstanbul",
        "coordinates": {
            "latitude": 40.9875075,
            "longitude": 29.0338605
        },
        "tags": [
            "memorial"
        ]
    },
    {
        "name": "2. Abdülhamit Anıtı",
        "description": "No description available",
        "location": "Türkiye/İstanbul",
        "coordinates": {
            "latitude": 40.9960576,
            "longitude": 29.0157164
        },
        "tags": [
            "memorial"
        ]
    },
    {
        "name": "2. Abdülhamit Anıtı",
        "description": "No description available",
        "location": "Türkiye/İstanbul",
        "coordinates": {
            "latitude": 41.0017691,
            "longitude": 29.0071158
        },
        "tags": [
            "memorial"
        ]
    },
    {
        "name": "Fazıl Hüsnü Dağlarca Heykeli",
        "description": "No description available",
        "location": "Türkiye/İstanbul",
        "coordinates": {
            "latitude": 40.9790323,
            "longitude": 29.0397211
        },
        "tags": [
            "memorial"
        ]
    },
    {
        "name": "Osman Hamdi Bey Heykeli",
        "description": "No description available",
        "location": "Türkiye/İstanbul",
        "coordinates": {
            "latitude": 40.9800644,
            "longitude": 29.0387997
        },
        "tags": [
            "memorial"
        ]
    },
    {
        "name": "Unknown Place",
        "description": "No description available",
        "location": "Türkiye/İstanbul",
        "coordinates": {
            "latitude": 41.0053889,
            "longitude": 29.0167112
        },
        "tags": [
            "memorial"
        ]
    },
    {
        "name": "Aslı Nemutlu Heykeli",
        "description": "No description available",
        "location": "Türkiye/İstanbul",
        "coordinates": {
            "latitude": 40.9796099,
            "longitude": 29.0392155
        },
        "tags": [
            "memorial"
        ]
    },
    {
        "name": "St. George's Anglikan Kilisesi",
        "description": "No description available",
        "location": "Türkiye/İstanbul",
        "coordinates": {
            "latitude": 41.1909401,
            "longitude": 28.9623135
        },
        "tags": [
            "ruins"
        ]
    },
    {
        "name": "Vecihi Hürkuş Heykeli",
        "description": "No description available",
        "location": "Türkiye/İstanbul",
        "coordinates": {
            "latitude": 40.9843724,
            "longitude": 29.0392821
        },
        "tags": [
            "memorial"
        ]
    },
    {
        "name": "Filiboz Antik Bizans kasabası",
        "description": "No description available",
        "location": "Türkiye/İstanbul",
        "coordinates": {
            "latitude": 41.1261093,
            "longitude": 28.7018667
        },
        "tags": [
            "monument"
        ]
    },
    {
        "name": "Devlet baba türbesi",
        "description": "No description available",
        "location": "Türkiye/İstanbul",
        "coordinates": {
            "latitude": 41.1540243,
            "longitude": 28.6757334
        },
        "tags": [
            "tomb"
        ]
    },
    {
        "name": "Atatürk Anıtı",
        "description": "No description available",
        "location": "Türkiye/İstanbul",
        "coordinates": {
            "latitude": 41.2464998,
            "longitude": 29.0369322
        },
        "tags": [
            "monument"
        ]
    },
    {
        "name": "Atatürk Heykeli",
        "description": "No description available",
        "location": "Türkiye/İstanbul",
        "coordinates": {
            "latitude": 40.9597384,
            "longitude": 29.1908809
        },
        "tags": [
            "monument"
        ]
    },
    {
        "name": "Seyit Onbaşı Heykeli",
        "description": "No description available",
        "location": "Türkiye/İstanbul",
        "coordinates": {
            "latitude": 40.959791,
            "longitude": 29.1918835
        },
        "tags": [
            "monument"
        ]
    },
    {
        "name": "Boğa Heykeli",
        "description": "No description available",
        "location": "Türkiye/İstanbul",
        "coordinates": {
            "latitude": 40.9904629,
            "longitude": 29.0291571
        },
        "tags": [
            "memorial"
        ]
    },
    {
        "name": "Manifaturaci Draper",
        "description": "No description available",
        "location": "Türkiye/İstanbul",
        "coordinates": {
            "latitude": 41.0148075,
            "longitude": 28.9710909
        },
        "tags": [
            "memorial"
        ]
    },
    {
        "name": "Kıztaşı",
        "description": "No description available",
        "location": "Türkiye/İstanbul",
        "coordinates": {
            "latitude": 41.0154411,
            "longitude": 28.9502846
        },
        "tags": [
            "memorial"
        ]
    },
    {
        "name": "Atatürk",
        "description": "No description available",
        "location": "Türkiye/İstanbul",
        "coordinates": {
            "latitude": 41.0150527,
            "longitude": 28.9768215
        },
        "tags": [
            "memorial"
        ]
    },
    {
        "name": "Fatih Anıtı",
        "description": "No description available",
        "location": "Türkiye/İstanbul",
        "coordinates": {
            "latitude": 41.0155727,
            "longitude": 28.9542189
        },
        "tags": [
            "memorial"
        ]
    },
    {
        "name": "Hava Şehitleri Anıtı",
        "description": "No description available",
        "location": "Türkiye/İstanbul",
        "coordinates": {
            "latitude": 41.0160748,
            "longitude": 28.9526349
        },
        "tags": [
            "memorial"
        ]
    },
    {
        "name": "Hamal",
        "description": "No description available",
        "location": "Türkiye/İstanbul",
        "coordinates": {
            "latitude": 41.0144875,
            "longitude": 28.9729077
        },
        "tags": [
            "memorial"
        ]
    },
    {
        "name": "Atatürk Heykeli",
        "description": "No description available",
        "location": "Türkiye/İstanbul",
        "coordinates": {
            "latitude": 40.9964445,
            "longitude": 29.018845
        },
        "tags": [
            "memorial"
        ]
    },
    {
        "name": "Unknown Place",
        "description": "No description available",
        "location": "Türkiye/İstanbul",
        "coordinates": {
            "latitude": 40.9958927,
            "longitude": 29.0183756
        },
        "tags": [
            "memorial"
        ]
    },
    {
        "name": "Atatürk",
        "description": "No description available",
        "location": "Türkiye/İstanbul",
        "coordinates": {
            "latitude": 41.0044513,
            "longitude": 28.9733107
        },
        "tags": [
            "memorial"
        ]
    },
    {
        "name": "Mithat Paşa",
        "description": "No description available",
        "location": "Türkiye/İstanbul",
        "coordinates": {
            "latitude": 41.0042194,
            "longitude": 28.9733768
        },
        "tags": [
            "memorial"
        ]
    },
    {
        "name": "Koca Sinan Paşa Külliyesi",
        "description": "No description available",
        "location": "Türkiye/İstanbul",
        "coordinates": {
            "latitude": 41.0088088,
            "longitude": 28.9690637
        },
        "tags": [
            "monument"
        ]
    },
    {
        "name": "Kara Mustafa Paşa Külliyesi",
        "description": "No description available",
        "location": "Türkiye/İstanbul",
        "coordinates": {
            "latitude": 41.0087157,
            "longitude": 28.9677599
        },
        "tags": [
            "monument"
        ]
    },
    {
        "name": "Atik Ali Paşa Medresesi",
        "description": "No description available",
        "location": "Türkiye/İstanbul",
        "coordinates": {
            "latitude": 41.0084081,
            "longitude": 28.9699808
        },
        "tags": [
            "monument"
        ]
    },
    {
        "name": "Bayram Paşa Külliyesi",
        "description": "No description available",
        "location": "Türkiye/İstanbul",
        "coordinates": {
            "latitude": 41.0087737,
            "longitude": 28.9423415
        },
        "tags": [
            "monument"
        ]
    },
    {
        "name": "Unknown Place",
        "description": "No description available",
        "location": "Türkiye/İstanbul",
        "coordinates": {
            "latitude": 40.9961969,
            "longitude": 28.9285033
        },
        "tags": [
            "monument"
        ]
    },
    {
        "name": "Sevda Tepesi",
        "description": "No description available",
        "location": "Türkiye/İstanbul",
        "coordinates": {
            "latitude": 41.075268,
            "longitude": 29.0653173
        },
        "tags": [
            "memorial"
        ]
    },
    {
        "name": "Sultan Ahmet Vakti",
        "description": "No description available",
        "location": "Türkiye/İstanbul",
        "coordinates": {
            "latitude": 41.0063795,
            "longitude": 28.9778711
        },
        "tags": [
            "memorial"
        ]
    },
    {
        "name": "Süvari Birliği Nalbanthanesi",
        "description": "No description available",
        "location": "Türkiye/İstanbul",
        "coordinates": {
            "latitude": 41.1085896,
            "longitude": 29.0106977
        },
        "tags": [
            "fort"
        ]
    },
    {
        "name": "Ahmet Adnan Saygun Heykeli",
        "description": "No description available",
        "location": "Türkiye/İstanbul",
        "coordinates": {
            "latitude": 41.0685915,
            "longitude": 29.0299016
        },
        "tags": [
            "artwork",
            "memorial"
        ]
    },
    {
        "name": "Atatürk Anıtı",
        "description": "No description available",
        "location": "Türkiye/İstanbul",
        "coordinates": {
            "latitude": 41.0374102,
            "longitude": 28.8831962
        },
        "tags": [
            "monument"
        ]
    },
    {
        "name": "Atatürk",
        "description": "No description available",
        "location": "Türkiye/İstanbul",
        "coordinates": {
            "latitude": 40.9922809,
            "longitude": 28.8453447
        },
        "tags": [
            "monument"
        ]
    },
    {
        "name": "Zindan baba Türbesi",
        "description": "No description available",
        "location": "Türkiye/İstanbul",
        "coordinates": {
            "latitude": 41.0187867,
            "longitude": 28.9691768
        },
        "tags": [
            "tomb"
        ]
    },
    {
        "name": "Unknown Place",
        "description": "No description available",
        "location": "Türkiye/İstanbul",
        "coordinates": {
            "latitude": 41.4037308,
            "longitude": 28.3841582
        },
        "tags": [
            "monument"
        ]
    },
    {
        "name": "Alibeyköy Mısır Heykeli",
        "description": "No description available",
        "location": "Türkiye/İstanbul",
        "coordinates": {
            "latitude": 41.0748485,
            "longitude": 28.9467619
        },
        "tags": [
            "monument"
        ]
    },
    {
        "name": "Unknown Place",
        "description": "No description available",
        "location": "Türkiye/İstanbul",
        "coordinates": {
            "latitude": 41.0609125,
            "longitude": 29.035254
        },
        "tags": [
            "fountain"
        ]
    },
    {
        "name": "Tombili Heykeli",
        "description": "No description available",
        "location": "Türkiye/İstanbul",
        "coordinates": {
            "latitude": 40.9889806,
            "longitude": 29.0418274
        },
        "tags": [
            "memorial"
        ]
    },
    {
        "name": "Unknown Place",
        "description": "No description available",
        "location": "Türkiye/İstanbul",
        "coordinates": {
            "latitude": 41.0156999,
            "longitude": 28.9644663
        },
        "tags": [
            "attraction",
            "memorial"
        ]
    },
    {
        "name": "Unknown Place",
        "description": "No description available",
        "location": "Türkiye/İstanbul",
        "coordinates": {
            "latitude": 41.0156683,
            "longitude": 28.9648085
        },
        "tags": [
            "memorial"
        ]
    },
    {
        "name": "Unknown Place",
        "description": "No description available",
        "location": "Türkiye/İstanbul",
        "coordinates": {
            "latitude": 41.0189329,
            "longitude": 28.9505004
        },
        "tags": [
            "memorial"
        ]
    },
    {
        "name": "Unknown Place",
        "description": "No description available",
        "location": "Türkiye/İstanbul",
        "coordinates": {
            "latitude": 41.0188441,
            "longitude": 28.9508151
        },
        "tags": [
            "memorial"
        ]
    },
    {
        "name": "Unknown Place",
        "description": "No description available",
        "location": "Türkiye/İstanbul",
        "coordinates": {
            "latitude": 41.0322806,
            "longitude": 28.9767927
        },
        "tags": [
            "memorial"
        ]
    },
    {
        "name": "Atatürk Heykeli",
        "description": "No description available",
        "location": "Türkiye/İstanbul",
        "coordinates": {
            "latitude": 41.0482025,
            "longitude": 29.2399897
        },
        "tags": [
            "monument"
        ]
    },
    {
        "name": "Kartallı Kazım Anıtı",
        "description": "No description available",
        "location": "Türkiye/İstanbul",
        "coordinates": {
            "latitude": 40.8962861,
            "longitude": 29.185872
        },
        "tags": [
            "memorial"
        ]
    },
    {
        "name": "Saat Kulesi",
        "description": "No description available",
        "location": "Türkiye/İstanbul",
        "coordinates": {
            "latitude": 40.8741241,
            "longitude": 29.1286022
        },
        "tags": [
            "monument"
        ]
    },
    {
        "name": "Kuzguncuk Gazhanesi",
        "description": "No description available",
        "location": "Türkiye/İstanbul",
        "coordinates": {
            "latitude": 41.035972,
            "longitude": 29.0350237
        },
        "tags": [
            "ruins"
        ]
    },
    {
        "name": "Unknown Place",
        "description": "No description available",
        "location": "Türkiye/İstanbul",
        "coordinates": {
            "latitude": 41.2342858,
            "longitude": 29.1124506
        },
        "tags": [
            "memorial"
        ]
    },
    {
        "name": "Gotlar Sütunu",
        "description": "No description available",
        "location": "İstanbul",
        "coordinates": {
            "latitude": 41.0146409,
            "longitude": 28.9856774
        },
        "tags": [
            "attraction",
            "memorial"
        ]
    },
    {
        "name": "Unknown Place",
        "description": "No description available",
        "location": "Türkiye/İstanbul",
        "coordinates": {
            "latitude": 41.0950452,
            "longitude": 28.9839317
        },
        "tags": [
            "monument"
        ]
    },
    {
        "name": "Unknown Place",
        "description": "No description available",
        "location": "Türkiye/İstanbul",
        "coordinates": {
            "latitude": 41.0333314,
            "longitude": 28.9771512
        },
        "tags": [
            "monument"
        ]
    },
    {
        "name": "Unknown Place",
        "description": "No description available",
        "location": "Türkiye/İstanbul",
        "coordinates": {
            "latitude": 40.9077062,
            "longitude": 29.1543789
        },
        "tags": [
            "monument"
        ]
    },
    {
        "name": "Atatürk Büstü",
        "description": "No description available",
        "location": "Türkiye/İstanbul",
        "coordinates": {
            "latitude": 40.9849088,
            "longitude": 29.0338966
        },
        "tags": [
            "memorial"
        ]
    },
    {
        "name": "ATATÜRK Heykeli",
        "description": "No description available",
        "location": "Türkiye/İstanbul",
        "coordinates": {
            "latitude": 40.9656268,
            "longitude": 29.2673074
        },
        "tags": [
            "memorial"
        ]
    },
    {
        "name": "Ali Suavi Anıtı",
        "description": "No description available",
        "location": "Türkiye/İstanbul",
        "coordinates": {
            "latitude": 40.9896047,
            "longitude": 29.0290813
        },
        "tags": [
            "memorial"
        ]
    },
    {
        "name": "Unknown Place",
        "description": "No description available",
        "location": "Türkiye/İstanbul",
        "coordinates": {
            "latitude": 41.028387,
            "longitude": 28.9770801
        },
        "tags": [
            "memorial"
        ]
    },
    {
        "name": "Bükücüler Han",
        "description": "No description available",
        "location": "Türkiye/İstanbul",
        "coordinates": {
            "latitude": 41.0096327,
            "longitude": 29.0143802
        },
        "tags": [
            "monument"
        ]
    },
    {
        "name": "Hasan Paşa Kulesi",
        "description": "No description available",
        "location": "Türkiye/İstanbul",
        "coordinates": {
            "latitude": 41.2136997,
            "longitude": 29.107452
        },
        "tags": [
            "castle"
        ]
    },
    {
        "name": "Unknown Place",
        "description": "No description available",
        "location": "Türkiye/İstanbul",
        "coordinates": {
            "latitude": 41.0230576,
            "longitude": 28.9259875
        },
        "tags": [
            "tomb"
        ]
    },
    {
        "name": "Ayios Polieuktos Kilisesi",
        "description": "No description available",
        "location": "Türkiye/İstanbul",
        "coordinates": {
            "latitude": 41.0142319,
            "longitude": 28.9529591
        },
        "tags": [
            "ruins"
        ]
    },
    {
        "name": "M.K. Atatürk & Salvador Allende",
        "description": "No description available",
        "location": "Türkiye/İstanbul",
        "coordinates": {
            "latitude": 40.9904492,
            "longitude": 29.1259111
        },
        "tags": [
            "monument"
        ]
    },
    {
        "name": "Imrahor ilyasbey mezarlığı",
        "description": "No description available",
        "location": "Istanbul",
        "coordinates": {
            "latitude": 40.9962681,
            "longitude": 28.9281396
        },
        "tags": [
            "cemetery",
            "grave_yard"
        ]
    },
    {
        "name": "Şeyh Ahmet Buhara Türbesi",
        "description": "No description available",
        "location": "Istanbul",
        "coordinates": {
            "latitude": 41.0231601,
            "longitude": 28.9602598
        },
        "tags": [
            "tomb"
        ]
    },
    {
        "name": "Seyyit Velayet Türbesi",
        "description": "No description available",
        "location": "Istanbul",
        "coordinates": {
            "latitude": 41.0238481,
            "longitude": 28.954732
        },
        "tags": [
            "tomb"
        ]
    },
    {
        "name": "Panayia Belgradu Kilisesi",
        "description": "No description available",
        "location": "Istanbul",
        "coordinates": {
            "latitude": 41.0001135,
            "longitude": 28.9219792
        },
        "tags": [
            "church",
            "place_of_worship"
        ]
    },
    {
        "name": "Unknown Place",
        "description": "No description available",
        "location": "Türkiye/İstanbul",
        "coordinates": {
            "latitude": 41.0079266,
            "longitude": 28.9752446
        },
        "tags": [
            "memorial"
        ]
    },
    {
        "name": "Molla Hüsrev cami Turbası",
        "description": "No description available",
        "location": "Türkiye/İstanbul",
        "coordinates": {
            "latitude": 41.0147778,
            "longitude": 28.959381
        },
        "tags": [
            "tomb"
        ]
    },
    {
        "name": "Ebuzer Gifari Türbesi",
        "description": "No description available",
        "location": "Istanbul",
        "coordinates": {
            "latitude": 41.0376062,
            "longitude": 28.9428599
        },
        "tags": [
            "tomb"
        ]
    },
    {
        "name": "İvaz Efendi Çeşmesi",
        "description": "No description available",
        "location": "Istanbul",
        "coordinates": {
            "latitude": 41.0378821,
            "longitude": 28.9411572
        },
        "tags": [
            "yes"
        ]
    },
    {
        "name": "Molla Gorani Hazretlerinin Kabri",
        "description": "No description available",
        "location": "Türkiye/İstanbul",
        "coordinates": {
            "latitude": 41.0112305,
            "longitude": 28.9411363
        },
        "tags": [
            "tomb"
        ]
    },
    {
        "name": "Sahabe-i Kiramdan Abdurrahman Şami Türbesi",
        "description": "No description available",
        "location": "Istanbul",
        "coordinates": {
            "latitude": 41.0066904,
            "longitude": 28.9791454
        },
        "tags": [
            "tomb"
        ]
    },
    {
        "name": "Şeyh Seyyid Seyfullah Hz.",
        "description": "No description available",
        "location": "Türkiye/İstanbul",
        "coordinates": {
            "latitude": 41.0071684,
            "longitude": 28.9269866
        },
        "tags": [
            "tomb"
        ]
    },
    {
        "name": "Unknown Place",
        "description": "No description available",
        "location": "Türkiye/İstanbul",
        "coordinates": {
            "latitude": 41.0577239,
            "longitude": 28.9497471
        },
        "tags": [
            "memorial"
        ]
    },
    {
        "name": "Cumhuriyet Meydanı",
        "description": "No description available",
        "location": "Türkiye/İstanbul",
        "coordinates": {
            "latitude": 40.9812405,
            "longitude": 28.8738949
        },
        "tags": [
            "monument"
        ]
    },
    {
        "name": "Karababa Türbesi",
        "description": "No description available",
        "location": "Istanbul",
        "coordinates": {
            "latitude": 41.0083008,
            "longitude": 28.9692078
        },
        "tags": [
            "tomb"
        ]
    },
    {
        "name": "Fatih Sultan Mehmet Heykeli",
        "description": "No description available",
        "location": "Türkiye/İstanbul",
        "coordinates": {
            "latitude": 41.0353157,
            "longitude": 28.9184913
        },
        "tags": [
            "memorial"
        ]
    },
    {
        "name": "Cow Statue",
        "description": "No description available",
        "location": "Türkiye/İstanbul",
        "coordinates": {
            "latitude": 41.1081763,
            "longitude": 29.0342498
        },
        "tags": [
            "memorial"
        ]
    },
    {
        "name": "Walkway Monuments",
        "description": "No description available",
        "location": "Türkiye/İstanbul",
        "coordinates": {
            "latitude": 41.1063201,
            "longitude": 29.0280643
        },
        "tags": [
            "memorial"
        ]
    },
    {
        "name": "Balerin Heykeli",
        "description": "No description available",
        "location": "Türkiye/İstanbul",
        "coordinates": {
            "latitude": 41.1046962,
            "longitude": 29.0235944
        },
        "tags": [
            "memorial"
        ]
    },
    {
        "name": "Sarayburnu Atatürk Anıtı",
        "description": "No description available",
        "location": "Türkiye/İstanbul",
        "coordinates": {
            "latitude": 41.016263,
            "longitude": 28.9861325
        },
        "tags": [
            "memorial"
        ]
    },
    {
        "name": "Cezayirli Gazi Hasan Paşa Anıtı",
        "description": "No description available",
        "location": "Türkiye/İstanbul",
        "coordinates": {
            "latitude": 41.0305744,
            "longitude": 28.9670993
        },
        "tags": [
            "memorial"
        ]
    },
    {
        "name": "Birinci dünya savasi (1914 - 1918)",
        "description": "No description available",
        "location": "Türkiye/İstanbul",
        "coordinates": {
            "latitude": 40.9637619,
            "longitude": 28.8264748
        },
        "tags": [
            "memorial"
        ]
    },
    {
        "name": "Buharizade Mustafa Efendi (Itri)",
        "description": "No description available",
        "location": "Türkiye/İstanbul",
        "coordinates": {
            "latitude": 41.0345631,
            "longitude": 28.9332608
        },
        "tags": [
            "tomb"
        ]
    },
    {
        "name": "Surp Kevork Kilisesi",
        "description": "No description available",
        "location": "İstanbul",
        "coordinates": {
            "latitude": 41.0018646,
            "longitude": 28.9331468
        },
        "tags": [
            "attraction",
            "yes",
            "place_of_worship"
        ]
    },
    {
        "name": "Unknown Place",
        "description": "No description available",
        "location": "Türkiye/İstanbul",
        "coordinates": {
            "latitude": 41.1029826,
            "longitude": 29.014754
        },
        "tags": [
            "memorial"
        ]
    },
    {
        "name": "Unknown Place",
        "description": "No description available",
        "location": "Türkiye/İstanbul",
        "coordinates": {
            "latitude": 41.103303,
            "longitude": 29.0133121
        },
        "tags": [
            "memorial"
        ]
    },
    {
        "name": "Bukoleon Tower",
        "description": "No description available",
        "location": "Türkiye/İstanbul",
        "coordinates": {
            "latitude": 41.0024186,
            "longitude": 28.9768533
        },
        "tags": [
            "tower"
        ]
    },
    {
        "name": "Unknown Place",
        "description": "No description available",
        "location": "Türkiye/İstanbul",
        "coordinates": {
            "latitude": 41.0127152,
            "longitude": 28.9839166
        },
        "tags": [
            "ruins"
        ]
    },
    {
        "name": "Eğrikapı",
        "description": "No description available",
        "location": "Türkiye/İstanbul",
        "coordinates": {
            "latitude": 41.0364729,
            "longitude": 28.9393976
        },
        "tags": [
            "city_gate"
        ]
    },
    {
        "name": "Unknown Place",
        "description": "No description available",
        "location": "Türkiye/İstanbul",
        "coordinates": {
            "latitude": 40.8688616,
            "longitude": 29.3280276
        },
        "tags": [
            "memorial"
        ]
    },
    {
        "name": "Unknown Place",
        "description": "No description available",
        "location": "Türkiye/İstanbul",
        "coordinates": {
            "latitude": 40.895747,
            "longitude": 29.3625611
        },
        "tags": [
            "memorial"
        ]
    },
    {
        "name": "Unknown Place",
        "description": "No description available",
        "location": "Türkiye/İstanbul",
        "coordinates": {
            "latitude": 41.0135974,
            "longitude": 28.9816408
        },
        "tags": [
            "monument"
        ]
    },
    {
        "name": "Şehit Uğur Taşçı Anıtı",
        "description": "No description available",
        "location": "Türkiye/İstanbul",
        "coordinates": {
            "latitude": 41.1325992,
            "longitude": 29.0401268
        },
        "tags": [
            "monument"
        ]
    },
    {
        "name": "Selamiali efendi mezarı",
        "description": "No description available",
        "location": "Türkiye/İstanbul",
        "coordinates": {
            "latitude": 41.0236472,
            "longitude": 29.0296013
        },
        "tags": [
            "tomb"
        ]
    },
    {
        "name": "Atatürk Büstü",
        "description": "No description available",
        "location": "Türkiye/İstanbul",
        "coordinates": {
            "latitude": 41.0166351,
            "longitude": 29.0456912
        },
        "tags": [
            "memorial"
        ]
    },
    {
        "name": "mezarlık",
        "description": "No description available",
        "location": "Türkiye/İstanbul",
        "coordinates": {
            "latitude": 41.0562805,
            "longitude": 29.0577323
        },
        "tags": [
            "memorial"
        ]
    },
    {
        "name": "Melantias",
        "description": "No description available",
        "location": "Türkiye/İstanbul",
        "coordinates": {
            "latitude": 41.0584379,
            "longitude": 28.7383917
        },
        "tags": [
            "archaeological_site"
        ]
    },
    {
        "name": "Tarihi Hamam",
        "description": "No description available",
        "location": "Türkiye/İstanbul",
        "coordinates": {
            "latitude": 41.1761776,
            "longitude": 29.6118871
        },
        "tags": [
            "ruins"
        ]
    },
    {
        "name": "Unknown Place",
        "description": "No description available",
        "location": "Türkiye/İstanbul",
        "coordinates": {
            "latitude": 41.0105474,
            "longitude": 28.9828324
        },
        "tags": [
            "castle"
        ]
    },
    {
        "name": "1453",
        "description": "No description available",
        "location": "Türkiye/İstanbul",
        "coordinates": {
            "latitude": 41.025896,
            "longitude": 29.0099698
        },
        "tags": [
            "memorial"
        ]
    },
    {
        "name": "Canfeda Tekkesi Haziresi",
        "description": "No description available",
        "location": "Türkiye/İstanbul",
        "coordinates": {
            "latitude": 41.0320931,
            "longitude": 28.9896659
        },
        "tags": [
            "memorial"
        ]
    },
    {
        "name": "Spradon",
        "description": "No description available",
        "location": "Türkiye/İstanbul",
        "coordinates": {
            "latitude": 41.0686511,
            "longitude": 28.7086192
        },
        "tags": [
            "ruins"
        ]
    },
    {
        "name": "Atatürk",
        "description": "No description available",
        "location": "Türkiye/İstanbul",
        "coordinates": {
            "latitude": 40.9693576,
            "longitude": 29.1514184
        },
        "tags": [
            "memorial"
        ]
    },
    {
        "name": "Turgut Reis",
        "description": "No description available",
        "location": "Türkiye/İstanbul",
        "coordinates": {
            "latitude": 41.0135331,
            "longitude": 28.9873206
        },
        "tags": [
            "memorial"
        ]
    },
    {
        "name": "Unknown Place",
        "description": "No description available",
        "location": "Türkiye/İstanbul",
        "coordinates": {
            "latitude": 40.9920698,
            "longitude": 28.7926812
        },
        "tags": [
            "memorial"
        ]
    },
    {
        "name": "Atatürk Anıtı",
        "description": "No description available",
        "location": "Türkiye/İstanbul",
        "coordinates": {
            "latitude": 41.1958042,
            "longitude": 28.3302282
        },
        "tags": [
            "monument"
        ]
    },
    {
        "name": "Atatürk Büstü",
        "description": "No description available",
        "location": "Türkiye/İstanbul",
        "coordinates": {
            "latitude": 41.0688232,
            "longitude": 28.1268291
        },
        "tags": [
            "monument"
        ]
    },
    {
        "name": "Atatürk Büstü",
        "description": "No description available",
        "location": "Türkiye/İstanbul",
        "coordinates": {
            "latitude": 41.2793031,
            "longitude": 28.8095306
        },
        "tags": [
            "memorial"
        ]
    },
    {
        "name": "Unknown Place",
        "description": "No description available",
        "location": "Türkiye/İstanbul",
        "coordinates": {
            "latitude": 41.0251877,
            "longitude": 28.9727489
        },
        "tags": [
            "building"
        ]
    },
    {
        "name": "Unknown Place",
        "description": "No description available",
        "location": "Türkiye/İstanbul",
        "coordinates": {
            "latitude": 40.9852167,
            "longitude": 29.0501224
        },
        "tags": [
            "monument"
        ]
    },
    {
        "name": "Fikret Mualla",
        "description": "No description available",
        "location": "Türkiye/İstanbul",
        "coordinates": {
            "latitude": 40.9834102,
            "longitude": 29.0332241
        },
        "tags": [
            "artwork",
            "memorial"
        ]
    },
    {
        "name": "Zübeyde Hanim",
        "description": "No description available",
        "location": "Türkiye/İstanbul",
        "coordinates": {
            "latitude": 41.0187122,
            "longitude": 29.0131431
        },
        "tags": [
            "memorial"
        ]
    },
    {
        "name": "Altıntepsi Su Terazisi",
        "description": "No description available",
        "location": "Türkiye/İstanbul",
        "coordinates": {
            "latitude": 41.0346712,
            "longitude": 28.8968447
        },
        "tags": [
            "ruins"
        ]
    },
    {
        "name": "Sadrazam Bahir Mustafa Paşa Çeşmesi",
        "description": "No description available",
        "location": "Türkiye/İstanbul",
        "coordinates": {
            "latitude": 41.0425394,
            "longitude": 28.9181886
        },
        "tags": [
            "yes"
        ]
    },
    {
        "name": "Tarihi Sütun",
        "description": "No description available",
        "location": "Türkiye/İstanbul",
        "coordinates": {
            "latitude": 41.0120877,
            "longitude": 29.0550874
        },
        "tags": [
            "monument"
        ]
    },
    {
        "name": "15 Temmuz Şehitleri Zafer Anıtı",
        "description": "No description available",
        "location": "Türkiye/İstanbul",
        "coordinates": {
            "latitude": 41.03699,
            "longitude": 29.0422754
        },
        "tags": [
            "memorial"
        ]
    },
    {
        "name": "Atatürk Heykeli",
        "description": "No description available",
        "location": "Türkiye/İstanbul",
        "coordinates": {
            "latitude": 40.980993,
            "longitude": 28.8733388
        },
        "tags": [
            "memorial"
        ]
    },
    {
        "name": "Fatih Sultan Mehmet Anıtı",
        "description": "No description available",
        "location": "Türkiye/İstanbul",
        "coordinates": {
            "latitude": 41.0303472,
            "longitude": 28.9370228
        },
        "tags": [
            "memorial"
        ]
    },
    {
        "name": "İstanbul’un Orta Noktası",
        "description": "No description available",
        "location": "Türkiye/İstanbul",
        "coordinates": {
            "latitude": 41.0131228,
            "longitude": 28.957839
        },
        "tags": [
            "memorial"
        ]
    },
    {
        "name": "Kamondo Merdivenleri",
        "description": "No description available",
        "location": "Türkiye/İstanbul",
        "coordinates": {
            "latitude": 41.0239741,
            "longitude": 28.9737825
        },
        "tags": [
            "memorial"
        ]
    },
    {
        "name": "Atatürk Anıtı",
        "description": "No description available",
        "location": "Türkiye/İstanbul",
        "coordinates": {
            "latitude": 41.4132745,
            "longitude": 28.1853018
        },
        "tags": [
            "monument"
        ]
    },
    {
        "name": "Binkılıç Bizans Kalesi",
        "description": "No description available",
        "location": "Türkiye/İstanbul",
        "coordinates": {
            "latitude": 41.419602,
            "longitude": 28.189778
        },
        "tags": [
            "castle"
        ]
    },
    {
        "name": "şişecam paşabahçe tuzla",
        "description": "No description available",
        "location": "Türkiye/İstanbul",
        "coordinates": {
            "latitude": 40.8398157,
            "longitude": 29.3134604
        },
        "tags": [
            "monument"
        ]
    },
    {
        "name": "Abacı Dede Türbesi",
        "description": "No description available",
        "location": "Türkiye/İstanbul",
        "coordinates": {
            "latitude": 41.0195837,
            "longitude": 29.0224407
        },
        "tags": [
            "memorial"
        ]
    },
    {
        "name": "Emin Baba Tekkesi",
        "description": "No description available",
        "location": "Türkiye/İstanbul",
        "coordinates": {
            "latitude": 41.0325687,
            "longitude": 28.9362445
        },
        "tags": [
            "building"
        ]
    },
    {
        "name": "Büyükçekmece Atatürk Anıtı",
        "description": "No description available",
        "location": "Türkiye/İstanbul",
        "coordinates": {
            "latitude": 41.0191302,
            "longitude": 28.5832365
        },
        "tags": [
            "monument"
        ]
    },
    {
        "name": "Şampiyonlar Anıtı",
        "description": "No description available",
        "location": "Türkiye/İstanbul",
        "coordinates": {
            "latitude": 41.0207103,
            "longitude": 28.5859734
        },
        "tags": [
            "monument"
        ]
    },
    {
        "name": "ARSAMIN YERİ",
        "description": "No description available",
        "location": "Türkiye/İstanbul",
        "coordinates": {
            "latitude": 41.2354596,
            "longitude": 28.5648025
        },
        "tags": [
            "memorial"
        ]
    },
    {
        "name": "Unknown Place",
        "description": "No description available",
        "location": "Türkiye/İstanbul",
        "coordinates": {
            "latitude": 41.1568456,
            "longitude": 28.1709931
        },
        "tags": [
            "church"
        ]
    },
    {
        "name": "Sarıkavak Kalesi",
        "description": "No description available",
        "location": "Türkiye/İstanbul",
        "coordinates": {
            "latitude": 41.0185817,
            "longitude": 29.6458173
        },
        "tags": [
            "castle"
        ]
    },
    {
        "name": "Unknown Place",
        "description": "No description available",
        "location": "Türkiye/İstanbul",
        "coordinates": {
            "latitude": 41.0098747,
            "longitude": 29.0413728
        },
        "tags": [
            "monument"
        ]
    },
    {
        "name": "Korugan",
        "description": "No description available",
        "location": "Türkiye/İstanbul",
        "coordinates": {
            "latitude": 41.1085597,
            "longitude": 28.5523747
        },
        "tags": [
            "ruins"
        ]
    },
    {
        "name": "Korugan",
        "description": "No description available",
        "location": "Türkiye/İstanbul",
        "coordinates": {
            "latitude": 41.1081279,
            "longitude": 28.5515726
        },
        "tags": [
            "ruins"
        ]
    },
    {
        "name": "Korugan",
        "description": "No description available",
        "location": "Türkiye/İstanbul",
        "coordinates": {
            "latitude": 41.1181358,
            "longitude": 28.5476668
        },
        "tags": [
            "ruins"
        ]
    },
    {
        "name": "Korugan",
        "description": "No description available",
        "location": "Türkiye/İstanbul",
        "coordinates": {
            "latitude": 41.1170005,
            "longitude": 28.5483993
        },
        "tags": [
            "ruins"
        ]
    },
    {
        "name": "Korugan",
        "description": "No description available",
        "location": "Türkiye/İstanbul",
        "coordinates": {
            "latitude": 41.123601,
            "longitude": 28.5460375
        },
        "tags": [
            "ruins"
        ]
    },
    {
        "name": "Korugan",
        "description": "No description available",
        "location": "Türkiye/İstanbul",
        "coordinates": {
            "latitude": 41.0913516,
            "longitude": 28.5672647
        },
        "tags": [
            "ruins"
        ]
    },
    {
        "name": "Korugan",
        "description": "No description available",
        "location": "Türkiye/İstanbul",
        "coordinates": {
            "latitude": 41.0918764,
            "longitude": 28.5663517
        },
        "tags": [
            "ruins"
        ]
    },
    {
        "name": "Korugan",
        "description": "No description available",
        "location": "Türkiye/İstanbul",
        "coordinates": {
            "latitude": 41.0975839,
            "longitude": 28.5487738
        },
        "tags": [
            "ruins"
        ]
    },
    {
        "name": "Korugan",
        "description": "No description available",
        "location": "Türkiye/İstanbul",
        "coordinates": {
            "latitude": 41.1029987,
            "longitude": 28.5427556
        },
        "tags": [
            "ruins"
        ]
    },
    {
        "name": "Korugan",
        "description": "No description available",
        "location": "Türkiye/İstanbul",
        "coordinates": {
            "latitude": 41.0886182,
            "longitude": 28.5567259
        },
        "tags": [
            "ruins"
        ]
    },
    {
        "name": "Mahmut Baba Türbesi",
        "description": "No description available",
        "location": "Türkiye/İstanbul",
        "coordinates": {
            "latitude": 40.9913443,
            "longitude": 29.0347259
        },
        "tags": [
            "tomb"
        ]
    },
    {
        "name": "Mehmed Kemal Bey sepulchral monument",
        "description": "No description available",
        "location": "Türkiye/İstanbul",
        "coordinates": {
            "latitude": 40.9915271,
            "longitude": 29.0347446
        },
        "tags": [
            "memorial"
        ]
    },
    {
        "name": "İnadiye Çeşmesi",
        "description": "No description available",
        "location": "Türkiye/İstanbul",
        "coordinates": {
            "latitude": 41.0168678,
            "longitude": 29.0182018
        },
        "tags": [
            "monument"
        ]
    },
    {
        "name": "Unknown Place",
        "description": "No description available",
        "location": "Türkiye/İstanbul",
        "coordinates": {
            "latitude": 41.0331182,
            "longitude": 28.9910449
        },
        "tags": [
            "memorial"
        ]
    },
    {
        "name": "Unknown Place",
        "description": "No description available",
        "location": "Türkiye/İstanbul",
        "coordinates": {
            "latitude": 41.1783298,
            "longitude": 29.6168538
        },
        "tags": [
            "monument"
        ]
    },
    {
        "name": "Gate of Rhegion",
        "description": "No description available",
        "location": "Türkiye/İstanbul",
        "coordinates": {
            "latitude": 41.014097,
            "longitude": 28.92199
        },
        "tags": [
            "yes"
        ]
    },
    {
        "name": "Gate of Rhegion",
        "description": "No description available",
        "location": "Türkiye/İstanbul",
        "coordinates": {
            "latitude": 41.0140859,
            "longitude": 28.9220687
        },
        "tags": [
            "yes"
        ]
    },
    {
        "name": "Cebeci Köyü Rum Kilisesi Kalıntıları",
        "description": "No description available",
        "location": "Türkiye/İstanbul",
        "coordinates": {
            "latitude": 41.1223229,
            "longitude": 28.8837706
        },
        "tags": [
            "church"
        ]
    },
    {
        "name": "Unknown Place",
        "description": "No description available",
        "location": "Türkiye/İstanbul",
        "coordinates": {
            "latitude": 41.0487226,
            "longitude": 29.0088345
        },
        "tags": [
            "memorial"
        ]
    },
    {
        "name": "Nişan Taşı",
        "description": "No description available",
        "location": "Türkiye/İstanbul",
        "coordinates": {
            "latitude": 41.051731,
            "longitude": 28.9915153
        },
        "tags": [
            "memorial"
        ]
    },
    {
        "name": "Unknown Place",
        "description": "No description available",
        "location": "Türkiye/İstanbul",
        "coordinates": {
            "latitude": 41.1029312,
            "longitude": 29.0466368
        },
        "tags": [
            "yes"
        ]
    },
    {
        "name": "Şerife Bacı Anıtı",
        "description": "No description available",
        "location": "Türkiye/İstanbul",
        "coordinates": {
            "latitude": 41.115819,
            "longitude": 28.9981836
        },
        "tags": [
            "monument"
        ]
    },
    {
        "name": "Beyazit Kulesi",
        "description": "No description available",
        "location": "Türkiye/İstanbul",
        "coordinates": {
            "latitude": 41.0113939,
            "longitude": 28.9646825
        },
        "tags": [
            "monument"
        ]
    },
    {
        "name": "Henry Bulwer Şatosu",
        "description": "No description available",
        "location": "Türkiye/İstanbul",
        "coordinates": {
            "latitude": 40.8647943,
            "longitude": 28.9957822
        },
        "tags": [
            "castle"
        ]
    },
    {
        "name": "Geriye Kalanlar",
        "description": "No description available",
        "location": "Türkiye/İstanbul",
        "coordinates": {
            "latitude": 40.8652275,
            "longitude": 28.9954466
        },
        "tags": [
            "memorial"
        ]
    },
    {
        "name": "Açık Hava Sergisi",
        "description": "No description available",
        "location": "Türkiye/İstanbul",
        "coordinates": {
            "latitude": 40.8644833,
            "longitude": 28.9949006
        },
        "tags": [
            "memorial"
        ]
    },
    {
        "name": "İslambey Çeşmesi",
        "description": "No description available",
        "location": "Türkiye/İstanbul",
        "coordinates": {
            "latitude": 41.0514574,
            "longitude": 28.9267588
        },
        "tags": [
            "fountain"
        ]
    },
    {
        "name": "Ahmet Hulusi Dörtışık Hayratı",
        "description": "No description available",
        "location": "Türkiye/İstanbul",
        "coordinates": {
            "latitude": 41.0526884,
            "longitude": 28.9194951
        },
        "tags": [
            "memorial"
        ]
    },
    {
        "name": "Hasan Rıza Paşa Çeşmesi",
        "description": "No description available",
        "location": "Türkiye/İstanbul",
        "coordinates": {
            "latitude": 41.0523275,
            "longitude": 28.9157172
        },
        "tags": [
            "fountain"
        ]
    },
    {
        "name": "Korugan 29",
        "description": "No description available",
        "location": "Türkiye/İstanbul",
        "coordinates": {
            "latitude": 41.3065035,
            "longitude": 28.5293046
        },
        "tags": [
            "yes"
        ]
    },
    {
        "name": "Korugan 26",
        "description": "No description available",
        "location": "Türkiye/İstanbul",
        "coordinates": {
            "latitude": 41.3040645,
            "longitude": 28.5260578
        },
        "tags": [
            "yes"
        ]
    },
    {
        "name": "Korugan 32",
        "description": "No description available",
        "location": "Türkiye/İstanbul",
        "coordinates": {
            "latitude": 41.3180905,
            "longitude": 28.5340275
        },
        "tags": [
            "yes"
        ]
    },
    {
        "name": "Korugan 23",
        "description": "No description available",
        "location": "Türkiye/İstanbul",
        "coordinates": {
            "latitude": 41.3011676,
            "longitude": 28.5159078
        },
        "tags": [
            "yes"
        ]
    },
    {
        "name": "Korugan 19",
        "description": "No description available",
        "location": "Türkiye/İstanbul",
        "coordinates": {
            "latitude": 41.2740964,
            "longitude": 28.5121983
        },
        "tags": [
            "yes"
        ]
    },
    {
        "name": "Alaiye Anıtı",
        "description": "No description available",
        "location": "Türkiye/İstanbul",
        "coordinates": {
            "latitude": 41.2738333,
            "longitude": 28.5131693
        },
        "tags": [
            "monument"
        ]
    },
    {
        "name": "Korugan 234",
        "description": "No description available",
        "location": "Türkiye/İstanbul",
        "coordinates": {
            "latitude": 41.2856674,
            "longitude": 28.509551
        },
        "tags": [
            "yes"
        ]
    },
    {
        "name": "Korugan 233",
        "description": "No description available",
        "location": "Türkiye/İstanbul",
        "coordinates": {
            "latitude": 41.2862216,
            "longitude": 28.5089877
        },
        "tags": [
            "yes"
        ]
    },
    {
        "name": "Korugan 235",
        "description": "No description available",
        "location": "Türkiye/İstanbul",
        "coordinates": {
            "latitude": 41.2852864,
            "longitude": 28.5099949
        },
        "tags": [
            "yes"
        ]
    },
    {
        "name": "Korugan 236",
        "description": "No description available",
        "location": "Türkiye/İstanbul",
        "coordinates": {
            "latitude": 41.2844258,
            "longitude": 28.50972
        },
        "tags": [
            "yes"
        ]
    },
    {
        "name": "Korugan 252",
        "description": "No description available",
        "location": "Türkiye/İstanbul",
        "coordinates": {
            "latitude": 41.2526039,
            "longitude": 28.5163558
        },
        "tags": [
            "yes"
        ]
    },
    {
        "name": "Korugan 30",
        "description": "No description available",
        "location": "Türkiye/İstanbul",
        "coordinates": {
            "latitude": 41.2518024,
            "longitude": 28.5294369
        },
        "tags": [
            "yes"
        ]
    },
    {
        "name": "Korugan 253",
        "description": "No description available",
        "location": "Türkiye/İstanbul",
        "coordinates": {
            "latitude": 41.2514343,
            "longitude": 28.5215914
        },
        "tags": [
            "yes"
        ]
    },
    {
        "name": "Korugan 247",
        "description": "No description available",
        "location": "Türkiye/İstanbul",
        "coordinates": {
            "latitude": 41.2492383,
            "longitude": 28.5195999
        },
        "tags": [
            "yes"
        ]
    },
    {
        "name": "Korugan 248",
        "description": "No description available",
        "location": "Türkiye/İstanbul",
        "coordinates": {
            "latitude": 41.2494732,
            "longitude": 28.5175842
        },
        "tags": [
            "yes"
        ]
    },
    {
        "name": "Korugan 249",
        "description": "No description available",
        "location": "Türkiye/İstanbul",
        "coordinates": {
            "latitude": 41.2497626,
            "longitude": 28.5173683
        },
        "tags": [
            "yes"
        ]
    },
    {
        "name": "Korugan 251",
        "description": "No description available",
        "location": "Türkiye/İstanbul",
        "coordinates": {
            "latitude": 41.2457646,
            "longitude": 28.5117477
        },
        "tags": [
            "yes"
        ]
    },
    {
        "name": "Korugan 245",
        "description": "No description available",
        "location": "Türkiye/İstanbul",
        "coordinates": {
            "latitude": 41.2610556,
            "longitude": 28.514607
        },
        "tags": [
            "yes"
        ]
    },
    {
        "name": "Korugan 21",
        "description": "No description available",
        "location": "Türkiye/İstanbul",
        "coordinates": {
            "latitude": 41.2611746,
            "longitude": 28.5139069
        },
        "tags": [
            "yes"
        ]
    },
    {
        "name": "Korugan 15",
        "description": "No description available",
        "location": "Türkiye/İstanbul",
        "coordinates": {
            "latitude": 41.2624468,
            "longitude": 28.5086444
        },
        "tags": [
            "yes"
        ]
    },
    {
        "name": "Korugan 240",
        "description": "No description available",
        "location": "Türkiye/İstanbul",
        "coordinates": {
            "latitude": 41.2550529,
            "longitude": 28.5017002
        },
        "tags": [
            "yes"
        ]
    },
    {
        "name": "Korugan 12",
        "description": "No description available",
        "location": "Türkiye/İstanbul",
        "coordinates": {
            "latitude": 41.2555349,
            "longitude": 28.5060655
        },
        "tags": [
            "yes"
        ]
    },
    {
        "name": "Korugan 11",
        "description": "No description available",
        "location": "Türkiye/İstanbul",
        "coordinates": {
            "latitude": 41.2583064,
            "longitude": 28.5052782
        },
        "tags": [
            "yes"
        ]
    },
    {
        "name": "Korugan 10",
        "description": "No description available",
        "location": "Türkiye/İstanbul",
        "coordinates": {
            "latitude": 41.2585241,
            "longitude": 28.5054727
        },
        "tags": [
            "yes"
        ]
    },
    {
        "name": "Mermer Anıtı",
        "description": "No description available",
        "location": "Türkiye/İstanbul",
        "coordinates": {
            "latitude": 40.986962,
            "longitude": 29.0525299
        },
        "tags": [
            "memorial"
        ]
    },
    {
        "name": "Jet Uçağı Anıtı",
        "description": "No description available",
        "location": "Türkiye/İstanbul",
        "coordinates": {
            "latitude": 40.9853863,
            "longitude": 29.0541508
        },
        "tags": [
            "monument"
        ]
    },
    {
        "name": "Unknown Place",
        "description": "No description available",
        "location": "Türkiye/İstanbul",
        "coordinates": {
            "latitude": 41.1359274,
            "longitude": 28.8933714
        },
        "tags": [
            "yes"
        ]
    },
    {
        "name": "Atatürk Anıtı",
        "description": "No description available",
        "location": "Türkiye/İstanbul",
        "coordinates": {
            "latitude": 40.8144496,
            "longitude": 29.3045383
        },
        "tags": [
            "memorial"
        ]
    },
    {
        "name": "Lefter Heykeli",
        "description": "No description available",
        "location": "Türkiye/İstanbul",
        "coordinates": {
            "latitude": 40.9871874,
            "longitude": 29.0341115
        },
        "tags": [
            "memorial"
        ]
    },
    {
        "name": "tab ilaç",
        "description": "No description available",
        "location": "Türkiye/İstanbul",
        "coordinates": {
            "latitude": 41.0721481,
            "longitude": 28.6298674
        },
        "tags": [
            "castle"
        ]
    },
    {
        "name": "Yanbol sinagog",
        "description": "No description available",
        "location": "Türkiye/İstanbul",
        "coordinates": {
            "latitude": 41.033268,
            "longitude": 28.9463358
        },
        "tags": [
            "monument"
        ]
    },
    {
        "name": "Kartal Çeşmesi",
        "description": "No description available",
        "location": "Türkiye/İstanbul",
        "coordinates": {
            "latitude": 40.8900062,
            "longitude": 29.1871589
        },
        "tags": [
            "yes"
        ]
    },
    {
        "name": "Zeynep Hanım Çeşmesi",
        "description": "No description available",
        "location": "Türkiye/İstanbul",
        "coordinates": {
            "latitude": 40.91703,
            "longitude": 29.2234299
        },
        "tags": [
            "fountain"
        ]
    },
    {
        "name": "Çözüm Noktasi",
        "description": "No description available",
        "location": "Türkiye/İstanbul",
        "coordinates": {
            "latitude": 41.0363872,
            "longitude": 28.9843486
        },
        "tags": [
            "monument"
        ]
    },
    {
        "name": "Unknown Place",
        "description": "No description available",
        "location": "Türkiye/İstanbul",
        "coordinates": {
            "latitude": 40.8315434,
            "longitude": 29.3420143
        },
        "tags": [
            "monument"
        ]
    },
    {
        "name": "Çantaköy Tümülüsü 2",
        "description": "No description available",
        "location": "Türkiye/İstanbul",
        "coordinates": {
            "latitude": 41.1111664,
            "longitude": 28.0675176
        },
        "tags": [
            "tomb"
        ]
    },
    {
        "name": "Erenköy Station Fountain",
        "description": "No description available",
        "location": "Türkiye/İstanbul",
        "coordinates": {
            "latitude": 40.9739147,
            "longitude": 29.0754164
        },
        "tags": [
            "fountain"
        ]
    },
    {
        "name": "Yoğurtçu Çeşmesi",
        "description": "No description available",
        "location": "Türkiye/İstanbul",
        "coordinates": {
            "latitude": 40.983629,
            "longitude": 29.0332419
        },
        "tags": [
            "yes"
        ]
    },
    {
        "name": "Unknown Place",
        "description": "No description available",
        "location": "Türkiye/İstanbul",
        "coordinates": {
            "latitude": 40.9910509,
            "longitude": 29.1332008
        },
        "tags": [
            "monument"
        ]
    },
    {
        "name": "Atatürk Anıtı",
        "description": "No description available",
        "location": "Türkiye/İstanbul",
        "coordinates": {
            "latitude": 40.9939088,
            "longitude": 29.1087537
        },
        "tags": [
            "memorial"
        ]
    },
    {
        "name": "Üsküp Saat Kulesi",
        "description": "No description available",
        "location": "Türkiye/İstanbul",
        "coordinates": {
            "latitude": 41.0316657,
            "longitude": 28.9101915
        },
        "tags": [
            "monument"
        ]
    },
    {
        "name": "Unknown Place",
        "description": "No description available",
        "location": "Türkiye/İstanbul",
        "coordinates": {
            "latitude": 41.0768624,
            "longitude": 28.1646601
        },
        "tags": [
            "monument"
        ]
    },
    {
        "name": "Yıldız Clock Tower",
        "description": "No description available",
        "location": "Türkiye/İstanbul",
        "coordinates": {
            "latitude": 41.0498637,
            "longitude": 29.0097995
        },
        "tags": [
            "yes",
            "clock"
        ]
    },
    {
        "name": "Unknown Place",
        "description": "No description available",
        "location": "Türkiye/İstanbul",
        "coordinates": {
            "latitude": 41.0580729,
            "longitude": 29.0351922
        },
        "tags": [
            "yes"
        ]
    },
    {
        "name": "Dervişkapı Germesi Kalıntıları",
        "description": "No description available",
        "location": "Türkiye/İstanbul",
        "coordinates": {
            "latitude": 41.3401596,
            "longitude": 28.3027031
        },
        "tags": [
            "ruins"
        ]
    },
    {
        "name": "Ballıgerme Su kemer",
        "description": "No description available",
        "location": "Türkiye/İstanbul",
        "coordinates": {
            "latitude": 41.3480864,
            "longitude": 28.2894756
        },
        "tags": [
            "ruins"
        ]
    },
    {
        "name": "Gümüşpınar Germesi",
        "description": "No description available",
        "location": "Türkiye/İstanbul",
        "coordinates": {
            "latitude": 41.3394205,
            "longitude": 28.290729
        },
        "tags": [
            "ruins"
        ]
    },
    {
        "name": "Mustafa Kemal Atatürk",
        "description": "No description available",
        "location": "Türkiye/İstanbul",
        "coordinates": {
            "latitude": 41.0672325,
            "longitude": 29.0432443
        },
        "tags": [
            "memorial"
        ]
    },
    {
        "name": "Unknown Place",
        "description": "No description available",
        "location": "Türkiye/İstanbul",
        "coordinates": {
            "latitude": 40.9856847,
            "longitude": 29.0485781
        },
        "tags": [
            "monument"
        ]
    },
    {
        "name": "İçerenköy Kavşağı Heykeli",
        "description": "No description available",
        "location": "Türkiye/İstanbul",
        "coordinates": {
            "latitude": 40.9717768,
            "longitude": 29.1083884
        },
        "tags": [
            "monument"
        ]
    },
    {
        "name": "Prof. Dr. Kriton Curi heykeli",
        "description": "No description available",
        "location": "Türkiye/İstanbul",
        "coordinates": {
            "latitude": 40.9763177,
            "longitude": 29.0937508
        },
        "tags": [
            "memorial"
        ]
    },
    {
        "name": "Sultan 1.Mahmut Çeşmesi",
        "description": "No description available",
        "location": "Türkiye/İstanbul",
        "coordinates": {
            "latitude": 41.0738466,
            "longitude": 29.0585462
        },
        "tags": [
            "memorial"
        ]
    },
    {
        "name": "Hababam Sınıfı Müzesi",
        "description": "No description available",
        "location": "Türkiye/İstanbul",
        "coordinates": {
            "latitude": 41.0136158,
            "longitude": 29.0419533
        },
        "tags": [
            "museum",
            "building"
        ]
    },
    {
        "name": "Unknown Place",
        "description": "No description available",
        "location": "Türkiye/İstanbul",
        "coordinates": {
            "latitude": 40.985238,
            "longitude": 29.0592737
        },
        "tags": [
            "memorial"
        ]
    },
    {
        "name": "Can Bartu heykeli",
        "description": "No description available",
        "location": "Türkiye/İstanbul",
        "coordinates": {
            "latitude": 40.9872304,
            "longitude": 29.0341218
        },
        "tags": [
            "monument"
        ]
    },
    {
        "name": "Silivrikapı Hypogeum",
        "description": "No description available",
        "location": "Türkiye/İstanbul",
        "coordinates": {
            "latitude": 41.0066029,
            "longitude": 28.9219004
        },
        "tags": [
            "tomb"
        ]
    },
    {
        "name": "Şah Anıtı",
        "description": "No description available",
        "location": "Türkiye/İstanbul",
        "coordinates": {
            "latitude": 41.1050457,
            "longitude": 28.850758
        },
        "tags": [
            "memorial"
        ]
    },
    {
        "name": "Sancaktepe Saat Kulesi",
        "description": "No description available",
        "location": "Türkiye/İstanbul",
        "coordinates": {
            "latitude": 40.9855927,
            "longitude": 29.2296973
        },
        "tags": [
            "monument"
        ]
    },
    {
        "name": "Taâvün Çeşmesi",
        "description": "No description available",
        "location": "Türkiye/İstanbul",
        "coordinates": {
            "latitude": 41.0511855,
            "longitude": 28.9224391
        },
        "tags": [
            "drinking_fountain"
        ]
    },
    {
        "name": "Yerebatan Sarnıcı",
        "description": "No description available",
        "location": "Istanbul",
        "coordinates": {
            "latitude": 41.0084029,
            "longitude": 28.9779226
        },
        "tags": [
            "attraction",
            "cistern"
        ]
    },
    {
        "name": "Unknown Place",
        "description": "No description available",
        "location": "Türkiye/İstanbul",
        "coordinates": {
            "latitude": 41.1535369,
            "longitude": 28.8948867
        },
        "tags": [
            "memorial"
        ]
    },
    {
        "name": "Modern saat Kulesi",
        "description": "No description available",
        "location": "Türkiye/İstanbul",
        "coordinates": {
            "latitude": 40.8265677,
            "longitude": 29.325352
        },
        "tags": [
            "memorial"
        ]
    },
    {
        "name": "1923",
        "description": "No description available",
        "location": "Türkiye/İstanbul",
        "coordinates": {
            "latitude": 41.0258266,
            "longitude": 29.0094982
        },
        "tags": [
            "memorial"
        ]
    },
    {
        "name": "Unknown Place",
        "description": "No description available",
        "location": "Türkiye/İstanbul",
        "coordinates": {
            "latitude": 41.001036,
            "longitude": 29.1243189
        },
        "tags": [
            "boundary_stone"
        ]
    },
    {
        "name": "Unknown Place",
        "description": "No description available",
        "location": "Türkiye/İstanbul",
        "coordinates": {
            "latitude": 41.0103962,
            "longitude": 28.9568517
        },
        "tags": [
            "city_gate"
        ]
    },
    {
        "name": "Unknown Place",
        "description": "No description available",
        "location": "Türkiye/İstanbul",
        "coordinates": {
            "latitude": 41.0097435,
            "longitude": 28.9562018
        },
        "tags": [
            "city_gate"
        ]
    },
    {
        "name": "Çoban Çeşmesi",
        "description": "No description available",
        "location": "Türkiye/İstanbul",
        "coordinates": {
            "latitude": 40.993706,
            "longitude": 28.8194808
        },
        "tags": [
            "memorial"
        ]
    },
    {
        "name": "Unknown Place",
        "description": "No description available",
        "location": "Türkiye/İstanbul",
        "coordinates": {
            "latitude": 41.1867603,
            "longitude": 28.9640818
        },
        "tags": [
            "memorial"
        ]
    },
    {
        "name": "Unknown Place",
        "description": "No description available",
        "location": "Türkiye/İstanbul",
        "coordinates": {
            "latitude": 40.9170733,
            "longitude": 29.3547638
        },
        "tags": [
            "memorial"
        ]
    },
    {
        "name": "Unknown Place",
        "description": "No description available",
        "location": "Türkiye/İstanbul",
        "coordinates": {
            "latitude": 41.0058935,
            "longitude": 28.975446
        },
        "tags": [
            "memorial"
        ]
    },
    {
        "name": "Sohum Kalesi Kitâbesi",
        "description": "No description available",
        "location": "Türkiye/İstanbul",
        "coordinates": {
            "latitude": 41.0123834,
            "longitude": 28.9840355
        },
        "tags": [
            "memorial"
        ]
    },
    {
        "name": "Unknown Place",
        "description": "No description available",
        "location": "Türkiye/İstanbul",
        "coordinates": {
            "latitude": 41.0126443,
            "longitude": 28.9837882
        },
        "tags": [
            "memorial"
        ]
    },
    {
        "name": "Unknown Place",
        "description": "No description available",
        "location": "Türkiye/İstanbul",
        "coordinates": {
            "latitude": 41.0126156,
            "longitude": 28.9837403
        },
        "tags": [
            "memorial"
        ]
    },
    {
        "name": "Unknown Place",
        "description": "No description available",
        "location": "Türkiye/İstanbul",
        "coordinates": {
            "latitude": 40.9203302,
            "longitude": 29.3508323
        },
        "tags": [
            "memorial"
        ]
    },
    {
        "name": "Unknown Place",
        "description": "No description available",
        "location": "Türkiye/İstanbul",
        "coordinates": {
            "latitude": 40.8759811,
            "longitude": 29.0877179
        },
        "tags": [
            "memorial"
        ]
    },
    {
        "name": "Unknown Place",
        "description": "No description available",
        "location": "Türkiye/İstanbul",
        "coordinates": {
            "latitude": 41.0333203,
            "longitude": 29.0251071
        },
        "tags": [
            "ruins"
        ]
    },
    {
        "name": "Unknown Place",
        "description": "No description available",
        "location": "Türkiye/İstanbul",
        "coordinates": {
            "latitude": 40.875743,
            "longitude": 29.0876317
        },
        "tags": [
            "memorial"
        ]
    },
    {
        "name": "Unknown Place",
        "description": "No description available",
        "location": "Türkiye/İstanbul",
        "coordinates": {
            "latitude": 41.0658954,
            "longitude": 28.9465414
        },
        "tags": [
            "memorial"
        ]
    },
    {
        "name": "Kayışdağı Suyu Çeşmesi",
        "description": "No description available",
        "location": "Türkiye/İstanbul",
        "coordinates": {
            "latitude": 40.9802988,
            "longitude": 29.077375
        },
        "tags": [
            "drinking_fountain",
            "drinking_water"
        ]
    },
    {
        "name": "Su Havuzu",
        "description": "No description available",
        "location": "Türkiye/İstanbul",
        "coordinates": {
            "latitude": 41.0918277,
            "longitude": 28.9044202
        },
        "tags": [
            "ruins"
        ]
    },
    {
        "name": "Mısırlı Hatice Hanım Çeşmesi",
        "description": "No description available",
        "location": "Türkiye/İstanbul",
        "coordinates": {
            "latitude": 41.1761619,
            "longitude": 29.6101176
        },
        "tags": [
            "fountain"
        ]
    },
    {
        "name": "Hüseyin Rahmi Gürpınar",
        "description": "No description available",
        "location": "Türkiye/İstanbul",
        "coordinates": {
            "latitude": 40.8765193,
            "longitude": 29.1008982
        },
        "tags": [
            "monument"
        ]
    },
    {
        "name": "15 Temmuz'da Tankın Altında Kalan Araç",
        "description": "No description available",
        "location": "Türkiye/İstanbul",
        "coordinates": {
            "latitude": 41.0463297,
            "longitude": 28.9329086
        },
        "tags": [
            "memorial"
        ]
    },
    {
        "name": "Unknown Place",
        "description": "No description available",
        "location": "Türkiye/İstanbul",
        "coordinates": {
            "latitude": 41.0445352,
            "longitude": 28.9337635
        },
        "tags": [
            "ruins"
        ]
    },
    {
        "name": "Unknown Place",
        "description": "No description available",
        "location": "Türkiye/İstanbul",
        "coordinates": {
            "latitude": 41.0443305,
            "longitude": 28.9339116
        },
        "tags": [
            "ruins"
        ]
    },
    {
        "name": "Mavi Marmara Anıtı",
        "description": "No description available",
        "location": "Türkiye/İstanbul",
        "coordinates": {
            "latitude": 41.0954254,
            "longitude": 28.8785158
        },
        "tags": [
            "memorial"
        ]
    },
    {
        "name": "İBB Bakırköy Ödünç Kütüphane",
        "description": "No description available",
        "location": "İstanbul",
        "coordinates": {
            "latitude": 40.9809416,
            "longitude": 28.8743693
        },
        "tags": [
            "building",
            "library"
        ]
    },
    {
        "name": "İBB Çubuklu Silolar Kütüphanesi",
        "description": "No description available",
        "location": "İstanbul",
        "coordinates": {
            "latitude": 41.1082453,
            "longitude": 29.0835867
        },
        "tags": [
            "building",
            "library"
        ]
    },
    {
        "name": "İBB Bulgur Palas Kütüphanesi",
        "description": "No description available",
        "location": "İstanbul",
        "coordinates": {
            "latitude": 41.0069951,
            "longitude": 28.9440457
        },
        "tags": [
            "building",
            "library"
        ]
    },
    {
        "name": "Rami Kütüphanesi Kasr-ı Hümayun Çeşmeleri",
        "description": "No description available",
        "location": "Türkiye/İstanbul",
        "coordinates": {
            "latitude": 41.0484792,
            "longitude": 28.9165314
        },
        "tags": [
            "drinking_fountain"
        ]
    },
    {
        "name": "Rami Kütüphanesi Kasr-ı Hümayun Çeşmeleri",
        "description": "No description available",
        "location": "Türkiye/İstanbul",
        "coordinates": {
            "latitude": 41.0485769,
            "longitude": 28.9166391
        },
        "tags": [
            "drinking_fountain"
        ]
    },
    {
        "name": "Unknown Place",
        "description": "No description available",
        "location": "Türkiye/İstanbul",
        "coordinates": {
            "latitude": 41.2676978,
            "longitude": 28.6963454
        },
        "tags": [
            "memorial"
        ]
    },
    {
        "name": "Unknown Place",
        "description": "No description available",
        "location": "Türkiye/İstanbul",
        "coordinates": {
            "latitude": 41.0356511,
            "longitude": 28.9940948
        },
        "tags": [
            "memorial"
        ]
    },
    {
        "name": "Caffè Nero",
        "description": "old greek school",
        "location": "Türkiye/İstanbul",
        "coordinates": {
            "latitude": 41.0434829,
            "longitude": 29.0050623
        },
        "tags": [
            "*",
            "cafe"
        ]
    },
    {
        "name": "Arkadyos Sütunu",
        "description": "No description available",
        "location": "Türkiye/İstanbul",
        "coordinates": {
            "latitude": 41.0077359,
            "longitude": 28.9430614
        },
        "tags": [
            "ruins"
        ]
    },
    {
        "name": "Uçak",
        "description": "No description available",
        "location": "Türkiye/İstanbul",
        "coordinates": {
            "latitude": 41.0108445,
            "longitude": 28.5989483
        },
        "tags": [
            "monument"
        ]
    },
    {
        "name": "Uçak",
        "description": "No description available",
        "location": "Türkiye/İstanbul",
        "coordinates": {
            "latitude": 41.0105693,
            "longitude": 28.5991696
        },
        "tags": [
            "monument"
        ]
    },
    {
        "name": "Eski Hamam",
        "description": "No description available",
        "location": "Türkiye/İstanbul",
        "coordinates": {
            "latitude": 41.0220856,
            "longitude": 28.5800394
        },
        "tags": [
            "ruins"
        ]
    }
]