[
    {
        "name": "Süleymaniye Camii",
        "description": "No description available",
        "location": "Türkiye/İstanbul",
        "coordinates": {
            "latitude": 41.0162377,
            "longitude": 28.9638318
        },
        "tags": [
            "place_of_worship"
        ]
    },
    {
        "name": "Fatih Camii",
        "description": "No description available",
        "location": "Istanbul",
        "coordinates": {
            "latitude": 41.0197482,
            "longitude": 28.9497619
        },
        "tags": [
            "attraction",
            "place_of_worship"
        ]
    },
    {
        "name": "World Trade Center Istanbul",
        "description": "No description available",
        "location": "Türkiye/İstanbul",
        "coordinates": {
            "latitude": 40.9862378,
            "longitude": 28.8318675
        },
        "tags": [
            "conference_centre"
        ]
    },
    {
        "name": "Uhud Camii",
        "description": "No description available",
        "location": "Türkiye/İstanbul",
        "coordinates": {
            "latitude": 41.0150307,
            "longitude": 28.8959932
        },
        "tags": [
            "place_of_worship"
        ]
    },
    {
        "name": "Nişancı Mehmetpaşa Cami",
        "description": "No description available",
        "location": "İstanbul",
        "coordinates": {
            "latitude": 41.0242108,
            "longitude": 28.9448032
        },
        "tags": [
            "place_of_worship"
        ]
    },
    {
        "name": "Sokullu Şehit Mehmed Paşa Camii",
        "description": "No description available",
        "location": "Türkiye/İstanbul",
        "coordinates": {
            "latitude": 41.0048439,
            "longitude": 28.9720415
        },
        "tags": [
            "place_of_worship"
        ]
    },
    {
        "name": "Mehmet Akif Camii",
        "description": "No description available",
        "location": "Küçükçekmece/İstanbul",
        "coordinates": {
            "latitude": 41.0338012,
            "longitude": 28.7912454
        },
        "tags": [
            "place_of_worship"
        ]
    },
    {
        "name": "Konutbirlik Camii",
        "description": "No description available",
        "location": "Türkiye/İstanbul",
        "coordinates": {
            "latitude": 41.0347801,
            "longitude": 28.7653658
        },
        "tags": [
            "place_of_worship"
        ]
    },
    {
        "name": "Kocatepe Ulu Cami",
        "description": "No description available",
        "location": "Türkiye/İstanbul",
        "coordinates": {
            "latitude": 41.0572588,
            "longitude": 28.8942703
        },
        "tags": [
            "place_of_worship"
        ]
    },
    {
        "name": "Küçükköy Merkez Camii",
        "description": "No description available",
        "location": "Türkiye/İstanbul",
        "coordinates": {
            "latitude": 41.0741096,
            "longitude": 28.9025107
        },
        "tags": [
            "place_of_worship"
        ]
    },
    {
        "name": "Unknown Place",
        "description": "No description available",
        "location": "Türkiye/İstanbul",
        "coordinates": {
            "latitude": 40.9897852,
            "longitude": 28.6756649
        },
        "tags": [
            "place_of_worship"
        ]
    },
    {
        "name": "İmam-ı Azam Camii",
        "description": "No description available",
        "location": "İstanbul",
        "coordinates": {
            "latitude": 41.1091691,
            "longitude": 28.8039276
        },
        "tags": [
            "place_of_worship"
        ]
    },
    {
        "name": "Zihni Bağdatlıoğlu Camii",
        "description": "No description available",
        "location": "Türkiye/İstanbul",
        "coordinates": {
            "latitude": 40.9175905,
            "longitude": 29.1915455
        },
        "tags": [
            "place_of_worship"
        ]
    },
    {
        "name": "Hasan Tahsin Uğur Camii",
        "description": "No description available",
        "location": "Türkiye/İstanbul",
        "coordinates": {
            "latitude": 40.9041134,
            "longitude": 29.1820665
        },
        "tags": [
            "place_of_worship"
        ]
    },
    {
        "name": "Unknown Place",
        "description": "No description available",
        "location": "Türkiye/İstanbul",
        "coordinates": {
            "latitude": 40.967828,
            "longitude": 29.0332022
        },
        "tags": [
            "parking"
        ]
    },
    {
        "name": "Yeşil Camii",
        "description": "No description available",
        "location": "Türkiye/İstanbul",
        "coordinates": {
            "latitude": 41.1906494,
            "longitude": 28.7199619
        },
        "tags": [
            "place_of_worship"
        ]
    },
    {
        "name": "Sinan Paşa Camisi",
        "description": "No description available",
        "location": "Türkiye/İstanbul",
        "coordinates": {
            "latitude": 41.0423653,
            "longitude": 29.0061492
        },
        "tags": [
            "place_of_worship"
        ]
    },
    {
        "name": "Mihrimah Sultan Camii",
        "description": "No description available",
        "location": "İstanbul",
        "coordinates": {
            "latitude": 41.0293602,
            "longitude": 28.9356975
        },
        "tags": [
            "place_of_worship"
        ]
    },
    {
        "name": "Hz. Hüseyin Camii",
        "description": "No description available",
        "location": "İstanbul",
        "coordinates": {
            "latitude": 41.1082054,
            "longitude": 28.7596824
        },
        "tags": [
            "place_of_worship"
        ]
    },
    {
        "name": "Kara Ahmet Paşa Cami",
        "description": "No description available",
        "location": "Istanbul",
        "coordinates": {
            "latitude": 41.0212358,
            "longitude": 28.9291215
        },
        "tags": [
            "place_of_worship"
        ]
    },
    {
        "name": "Yeni Valide Cami",
        "description": "No description available",
        "location": "İstanbul",
        "coordinates": {
            "latitude": 41.0247806,
            "longitude": 29.015039
        },
        "tags": [
            "yes",
            "place_of_worship"
        ]
    },
    {
        "name": "Unknown Place",
        "description": "No description available",
        "location": "Türkiye/İstanbul",
        "coordinates": {
            "latitude": 40.9687617,
            "longitude": 29.2079814
        },
        "tags": [
            "prison"
        ]
    },
    {
        "name": "Unknown Place",
        "description": "No description available",
        "location": "Türkiye/İstanbul",
        "coordinates": {
            "latitude": 40.9672957,
            "longitude": 29.2070128
        },
        "tags": [
            "prison"
        ]
    },
    {
        "name": "Unknown Place",
        "description": "No description available",
        "location": "Türkiye/İstanbul",
        "coordinates": {
            "latitude": 40.9653646,
            "longitude": 29.2045745
        },
        "tags": [
            "prison"
        ]
    },
    {
        "name": "Unknown Place",
        "description": "No description available",
        "location": "Türkiye/İstanbul",
        "coordinates": {
            "latitude": 40.9649726,
            "longitude": 29.2063534
        },
        "tags": [
            "prison"
        ]
    },
    {
        "name": "Unknown Place",
        "description": "No description available",
        "location": "Türkiye/İstanbul",
        "coordinates": {
            "latitude": 41.0548956,
            "longitude": 29.1152661
        },
        "tags": [
            "prison"
        ]
    },
    {
        "name": "Ümraniye T Tipi Kapalı Ceza İnfaz Kurumu",
        "description": "No description available",
        "location": "Türkiye/İstanbul",
        "coordinates": {
            "latitude": 41.0539627,
            "longitude": 29.115972
        },
        "tags": [
            "prison"
        ]
    },
    {
        "name": "Unknown Place",
        "description": "No description available",
        "location": "Türkiye/İstanbul",
        "coordinates": {
            "latitude": 40.9903067,
            "longitude": 28.8574592
        },
        "tags": [
            "prison"
        ]
    },
    {
        "name": "Yavuz Sultan Selim Cami",
        "description": "No description available",
        "location": "İstanbul",
        "coordinates": {
            "latitude": 41.0266074,
            "longitude": 28.9512953
        },
        "tags": [
            "attraction",
            "place_of_worship"
        ]
    },
    {
        "name": "Laleli Camii",
        "description": "No description available",
        "location": "Türkiye/İstanbul",
        "coordinates": {
            "latitude": 41.0100742,
            "longitude": 28.9565654
        },
        "tags": [
            "place_of_worship"
        ]
    },
    {
        "name": "Ataköy 5. Kısım Ömer Duruk Cami",
        "description": "No description available",
        "location": "İstanbul",
        "coordinates": {
            "latitude": 40.979387,
            "longitude": 28.8589924
        },
        "tags": [
            "place_of_worship"
        ]
    },
    {
        "name": "Unknown Place",
        "description": "No description available",
        "location": "Türkiye/İstanbul",
        "coordinates": {
            "latitude": 40.9701375,
            "longitude": 28.8031711
        },
        "tags": [
            "place_of_worship"
        ]
    },
    {
        "name": "Unknown Place",
        "description": "No description available",
        "location": "Türkiye/İstanbul",
        "coordinates": {
            "latitude": 41.0248912,
            "longitude": 29.0194594
        },
        "tags": [
            "parking"
        ]
    },
    {
        "name": "Büyük Çamlıca Camii",
        "description": "No description available",
        "location": "İstanbul",
        "coordinates": {
            "latitude": 41.034429,
            "longitude": 29.0703099
        },
        "tags": [
            "place_of_worship"
        ]
    },
    {
        "name": "Ambarlı Semt Pazarı",
        "description": "No description available",
        "location": "Türkiye/İstanbul",
        "coordinates": {
            "latitude": 40.978039,
            "longitude": 28.7107397
        },
        "tags": [
            "marketplace"
        ]
    },
    {
        "name": "Yeni Camii",
        "description": "No description available",
        "location": "İstanbul",
        "coordinates": {
            "latitude": 41.0169497,
            "longitude": 28.9720803
        },
        "tags": [
            "place_of_worship"
        ]
    },
    {
        "name": "Fatih İlçe Emniyet Müdürlüğü",
        "description": "No description available",
        "location": "Istanbul",
        "coordinates": {
            "latitude": 41.0112769,
            "longitude": 28.9773409
        },
        "tags": [
            "police"
        ]
    },
    {
        "name": "Millet Yazma Eser Kütüphanesi",
        "description": "No description available",
        "location": "İstanbul",
        "coordinates": {
            "latitude": 41.0170071,
            "longitude": 28.9498838
        },
        "tags": [
            "library"
        ]
    },
    {
        "name": "Kariye Camii",
        "description": "No description available",
        "location": "İstanbul",
        "coordinates": {
            "latitude": 41.0312121,
            "longitude": 28.9390238
        },
        "tags": [
            "church",
            "place_of_worship"
        ]
    },
    {
        "name": "Damat İbrahim Paşa Camii",
        "description": "No description available",
        "location": "Türkiye/İstanbul",
        "coordinates": {
            "latitude": 41.0131032,
            "longitude": 28.9582602
        },
        "tags": [
            "place_of_worship"
        ]
    },
    {
        "name": "Şehzadebaşı Camii",
        "description": "No description available",
        "location": "İstanbul",
        "coordinates": {
            "latitude": 41.0138862,
            "longitude": 28.9570828
        },
        "tags": [
            "attraction",
            "place_of_worship"
        ]
    },
    {
        "name": "İstanbul Üniversitesi Hukuk Fakültesi",
        "description": "No description available",
        "location": "Türkiye/İstanbul",
        "coordinates": {
            "latitude": 41.0138407,
            "longitude": 28.9631222
        },
        "tags": [
            "university"
        ]
    },
    {
        "name": "Bayrampaşa Polis Merkezi",
        "description": "No description available",
        "location": "Türkiye/İstanbul",
        "coordinates": {
            "latitude": 41.0330347,
            "longitude": 28.9108775
        },
        "tags": [
            "police"
        ]
    },
    {
        "name": "Bilfen Otopark",
        "description": "No description available",
        "location": "Türkiye/İstanbul",
        "coordinates": {
            "latitude": 41.0157358,
            "longitude": 29.0595585
        },
        "tags": [
            "parking"
        ]
    },
    {
        "name": "Bilfen Çamlıca İlkokulu",
        "description": "No description available",
        "location": "İstanbul",
        "coordinates": {
            "latitude": 41.0164204,
            "longitude": 29.0585454
        },
        "tags": [
            "school"
        ]
    },
    {
        "name": "Prof. Dr. Fahrettin Kerim ve Nilüfer Gökay Huzurevi, Yaşlı Bakım ve Rehabilitasyon Merkezi",
        "description": "No description available",
        "location": "Türkiye/İstanbul",
        "coordinates": {
            "latitude": 41.0155974,
            "longitude": 29.0607092
        },
        "tags": [
            "social_facility"
        ]
    },
    {
        "name": "Unknown Place",
        "description": "No description available",
        "location": "Türkiye/İstanbul",
        "coordinates": {
            "latitude": 40.9449254,
            "longitude": 29.1644464
        },
        "tags": [
            "parking"
        ]
    },
    {
        "name": "Unknown Place",
        "description": "No description available",
        "location": "Türkiye/İstanbul",
        "coordinates": {
            "latitude": 40.8593866,
            "longitude": 29.270511
        },
        "tags": [
            "parking"
        ]
    },
    {
        "name": "Unknown Place",
        "description": "No description available",
        "location": "Türkiye/İstanbul",
        "coordinates": {
            "latitude": 40.8718731,
            "longitude": 29.3201554
        },
        "tags": [
            "parking"
        ]
    },
    {
        "name": "Unknown Place",
        "description": "No description available",
        "location": "Türkiye/İstanbul",
        "coordinates": {
            "latitude": 40.9092151,
            "longitude": 29.314777
        },
        "tags": [
            "parking"
        ]
    },
    {
        "name": "Unknown Place",
        "description": "No description available",
        "location": "Türkiye/İstanbul",
        "coordinates": {
            "latitude": 40.9066359,
            "longitude": 29.3135493
        },
        "tags": [
            "parking"
        ]
    },
    {
        "name": "Unknown Place",
        "description": "No description available",
        "location": "Türkiye/İstanbul",
        "coordinates": {
            "latitude": 40.9060011,
            "longitude": 29.3123725
        },
        "tags": [
            "parking"
        ]
    },
    {
        "name": "Unknown Place",
        "description": "No description available",
        "location": "Türkiye/İstanbul",
        "coordinates": {
            "latitude": 40.9037852,
            "longitude": 29.3079652
        },
        "tags": [
            "parking"
        ]
    },
    {
        "name": "Unknown Place",
        "description": "No description available",
        "location": "Türkiye/İstanbul",
        "coordinates": {
            "latitude": 40.9038261,
            "longitude": 29.306568
        },
        "tags": [
            "parking"
        ]
    },
    {
        "name": "Unknown Place",
        "description": "No description available",
        "location": "Türkiye/İstanbul",
        "coordinates": {
            "latitude": 40.8900644,
            "longitude": 29.2968766
        },
        "tags": [
            "parking"
        ]
    },
    {
        "name": "Unknown Place",
        "description": "No description available",
        "location": "Türkiye/İstanbul",
        "coordinates": {
            "latitude": 40.8875742,
            "longitude": 29.2966927
        },
        "tags": [
            "parking"
        ]
    },
    {
        "name": "Pentaş Havaalanı Otoparkı",
        "description": "No description available",
        "location": "Türkiye/İstanbul",
        "coordinates": {
            "latitude": 40.92453,
            "longitude": 29.3096679
        },
        "tags": [
            "parking"
        ]
    },
    {
        "name": "Unknown Place",
        "description": "No description available",
        "location": "Türkiye/İstanbul",
        "coordinates": {
            "latitude": 40.9258311,
            "longitude": 29.3082688
        },
        "tags": [
            "parking"
        ]
    },
    {
        "name": "İspark Sabiha Gökçen",
        "description": "No description available",
        "location": "Türkiye/İstanbul",
        "coordinates": {
            "latitude": 40.9242622,
            "longitude": 29.3082891
        },
        "tags": [
            "parking"
        ]
    },
    {
        "name": "Unknown Place",
        "description": "No description available",
        "location": "Türkiye/İstanbul",
        "coordinates": {
            "latitude": 41.1504977,
            "longitude": 28.6184134
        },
        "tags": [
            "place_of_worship"
        ]
    },
    {
        "name": "Terakki Vakfı Okulları Tepeören Yerleşkesi",
        "description": "No description available",
        "location": "Türkiye/İstanbul",
        "coordinates": {
            "latitude": 40.9189904,
            "longitude": 29.3932755
        },
        "tags": [
            "school"
        ]
    },
    {
        "name": "Unknown Place",
        "description": "No description available",
        "location": "Türkiye/İstanbul",
        "coordinates": {
            "latitude": 41.0918954,
            "longitude": 28.6503508
        },
        "tags": [
            "place_of_worship"
        ]
    },
    {
        "name": "Unknown Place",
        "description": "No description available",
        "location": "Türkiye/İstanbul",
        "coordinates": {
            "latitude": 40.8647599,
            "longitude": 29.3187305
        },
        "tags": [
            "place_of_worship"
        ]
    },
    {
        "name": "Unknown Place",
        "description": "No description available",
        "location": "Türkiye/İstanbul",
        "coordinates": {
            "latitude": 40.9749393,
            "longitude": 28.6194264
        },
        "tags": [
            "place_of_worship"
        ]
    },
    {
        "name": "Yedpa Camiİ",
        "description": "No description available",
        "location": "İstanbul",
        "coordinates": {
            "latitude": 40.9849696,
            "longitude": 29.1626337
        },
        "tags": [
            "place_of_worship"
        ]
    },
    {
        "name": "Unknown Place",
        "description": "No description available",
        "location": "Türkiye/İstanbul",
        "coordinates": {
            "latitude": 41.0161091,
            "longitude": 29.0297086
        },
        "tags": [
            "parking"
        ]
    },
    {
        "name": "Atatürk Ortaokulu",
        "description": "No description available",
        "location": "İstanbul",
        "coordinates": {
            "latitude": 41.0134146,
            "longitude": 29.0249446
        },
        "tags": [
            "school"
        ]
    },
    {
        "name": "Ata İlköğretim Okulu",
        "description": "No description available",
        "location": "Türkiye/İstanbul",
        "coordinates": {
            "latitude": 41.0131206,
            "longitude": 29.05105
        },
        "tags": [
            "school"
        ]
    },
    {
        "name": "Validebağ Devlet Hastanesi",
        "description": "No description available",
        "location": "Üsküdar/İstanbul",
        "coordinates": {
            "latitude": 41.0122162,
            "longitude": 29.0408363
        },
        "tags": [
            "hospital"
        ]
    },
    {
        "name": "Yakacık Mesleki Ve Teknik Anadolu Lisesi",
        "description": "No description available",
        "location": "İstanbul",
        "coordinates": {
            "latitude": 40.9115692,
            "longitude": 29.223729
        },
        "tags": [
            "school"
        ]
    },
    {
        "name": "Mihrimah Sultan Medresesi",
        "description": "No description available",
        "location": "Türkiye/İstanbul",
        "coordinates": {
            "latitude": 41.0272561,
            "longitude": 29.0163208
        },
        "tags": [
            "yes",
            "place_of_worship"
        ]
    },
    {
        "name": "Yakacık Semt Pazarı",
        "description": "No description available",
        "location": "Türkiye/İstanbul",
        "coordinates": {
            "latitude": 40.9100694,
            "longitude": 29.2232845
        },
        "tags": [
            "marketplace"
        ]
    },
    {
        "name": "Başakşehir Millet Kıraathanesi",
        "description": "No description available",
        "location": "Türkiye/İstanbul",
        "coordinates": {
            "latitude": 41.1169245,
            "longitude": 28.775425
        },
        "tags": [
            "library"
        ]
    },
    {
        "name": "İstanbul Kültürler Arası Dayanışma Eğitim ve Araştırma Vakfı",
        "description": "No description available",
        "location": "Türkiye/İstanbul",
        "coordinates": {
            "latitude": 41.1208002,
            "longitude": 28.7751916
        },
        "tags": [
            "place_of_worship"
        ]
    },
    {
        "name": "Boz Ahmet Ağaoğulları Camii",
        "description": "No description available",
        "location": "Türkiye/İstanbul",
        "coordinates": {
            "latitude": 41.0573976,
            "longitude": 29.0733454
        },
        "tags": [
            "place_of_worship"
        ]
    },
    {
        "name": "Ümraniye Eğitim ve Araştırma Hastanesi Otoparkı 1",
        "description": "No description available",
        "location": "Türkiye/İstanbul",
        "coordinates": {
            "latitude": 41.0311645,
            "longitude": 29.1012577
        },
        "tags": [
            "parking"
        ]
    },
    {
        "name": "Abdulkadir Camii",
        "description": "No description available",
        "location": "İstanbul",
        "coordinates": {
            "latitude": 40.9718462,
            "longitude": 28.632332
        },
        "tags": [
            "place_of_worship"
        ]
    },
    {
        "name": "Unknown Place",
        "description": "No description available",
        "location": "Türkiye/İstanbul",
        "coordinates": {
            "latitude": 41.1030337,
            "longitude": 29.0277711
        },
        "tags": [
            "parking"
        ]
    },
    {
        "name": "İTÜ Mimarlık Fakültesi",
        "description": "No description available",
        "location": "Türkiye/İstanbul",
        "coordinates": {
            "latitude": 41.0411017,
            "longitude": 28.9897973
        },
        "tags": [
            "university"
        ]
    },
    {
        "name": "İstanbul Teknik Üniversitesi",
        "description": "No description available",
        "location": "İstanbul",
        "coordinates": {
            "latitude": 41.1048756,
            "longitude": 29.0261383
        },
        "tags": [
            "university"
        ]
    },
    {
        "name": "Başakşehir Merkez Camii",
        "description": "No description available",
        "location": "Türkiye/İstanbul",
        "coordinates": {
            "latitude": 41.120491,
            "longitude": 28.7729555
        },
        "tags": [
            "place_of_worship"
        ]
    },
    {
        "name": "İstanbul Havalimanı Otoparkı",
        "description": "No description available",
        "location": "Türkiye/İstanbul",
        "coordinates": {
            "latitude": 41.2577237,
            "longitude": 28.7425851
        },
        "tags": [
            "parking"
        ]
    },
    {
        "name": "Ali Kuşçu Camii",
        "description": "No description available",
        "location": "İstanbul",
        "coordinates": {
            "latitude": 41.2538645,
            "longitude": 28.7452823
        },
        "tags": [
            "place_of_worship"
        ]
    },
    {
        "name": "Beyazıt Camii",
        "description": "No description available",
        "location": "Türkiye/İstanbul",
        "coordinates": {
            "latitude": 41.010284,
            "longitude": 28.9652771
        },
        "tags": [
            "place_of_worship"
        ]
    },
    {
        "name": "Fatih Sultan Mehmet Camii",
        "description": "No description available",
        "location": "Türkiye/İstanbul",
        "coordinates": {
            "latitude": 41.0095442,
            "longitude": 28.6426776
        },
        "tags": [
            "place_of_worship"
        ]
    },
    {
        "name": "Doğa Koleji Yakacık Kampüsü",
        "description": "No description available",
        "location": "Türkiye/İstanbul",
        "coordinates": {
            "latitude": 40.9121141,
            "longitude": 29.2269275
        },
        "tags": [
            "school"
        ]
    },
    {
        "name": "Kocatepe Camii",
        "description": "No description available",
        "location": "Türkiye/İstanbul",
        "coordinates": {
            "latitude": 41.0521179,
            "longitude": 28.8967351
        },
        "tags": [
            "place_of_worship"
        ]
    },
    {
        "name": "İbrahim Üzümcü Konferans Salonu",
        "description": "No description available",
        "location": "Türkiye/İstanbul",
        "coordinates": {
            "latitude": 40.9866766,
            "longitude": 29.0515549
        },
        "tags": [
            "conference_centre"
        ]
    },
    {
        "name": "Kadıkoy Kız Teknik ve Meslek Lisesi",
        "description": "No description available",
        "location": "Türkiye/İstanbul",
        "coordinates": {
            "latitude": 40.9836317,
            "longitude": 29.0244091
        },
        "tags": [
            "school"
        ]
    },
    {
        "name": "Üsküdar American Academy",
        "description": "No description available",
        "location": "Türkiye/İstanbul",
        "coordinates": {
            "latitude": 41.0250007,
            "longitude": 29.0325234
        },
        "tags": [
            "school"
        ]
    },
    {
        "name": "Mimar Sinan Camii",
        "description": "No description available",
        "location": "İstanbul",
        "coordinates": {
            "latitude": 40.9957898,
            "longitude": 29.1121873
        },
        "tags": [
            "place_of_worship"
        ]
    },
    {
        "name": "Unknown Place",
        "description": "No description available",
        "location": "Türkiye/İstanbul",
        "coordinates": {
            "latitude": 40.9858383,
            "longitude": 29.050585
        },
        "tags": [
            "parking"
        ]
    },
    {
        "name": "Taylan Doğuer Kandilli İlkokulu",
        "description": "No description available",
        "location": "İstanbul",
        "coordinates": {
            "latitude": 41.0740721,
            "longitude": 29.0578992
        },
        "tags": [
            "school"
        ]
    },
    {
        "name": "Kandilli Kız Anadolu Lisesi",
        "description": "No description available",
        "location": "Türkiye/İstanbul",
        "coordinates": {
            "latitude": 41.071423,
            "longitude": 29.0573006
        },
        "tags": [
            "school"
        ]
    },
    {
        "name": "Haseki Eğitim Ve Araştırma Hastanesi Topçular Semt Polikliniği",
        "description": "No description available",
        "location": "Türkiye/İstanbul",
        "coordinates": {
            "latitude": 41.0478507,
            "longitude": 28.913519
        },
        "tags": [
            "clinic"
        ]
    },
    {
        "name": "Hadımköy Dr. İsmail Niyazi Kurtulmuş Hastanesi",
        "description": "No description available",
        "location": "İstanbul",
        "coordinates": {
            "latitude": 41.1552143,
            "longitude": 28.6194859
        },
        "tags": [
            "hospital"
        ]
    },
    {
        "name": "Atik Valide Cami",
        "description": "No description available",
        "location": "Türkiye/İstanbul",
        "coordinates": {
            "latitude": 41.0189082,
            "longitude": 29.0236277
        },
        "tags": [
            "place_of_worship"
        ]
    },
    {
        "name": "Unknown Place",
        "description": "No description available",
        "location": "Türkiye/İstanbul",
        "coordinates": {
            "latitude": 40.9758206,
            "longitude": 28.7772649
        },
        "tags": [
            "parking"
        ]
    },
    {
        "name": "Taksim Camii",
        "description": "No description available",
        "location": "Türkiye/İstanbul",
        "coordinates": {
            "latitude": 41.0369347,
            "longitude": 28.9840061
        },
        "tags": [
            "place_of_worship"
        ]
    },
    {
        "name": "Büyükçekmece Anadolu Lisesi",
        "description": "No description available",
        "location": "Türkiye/İstanbul",
        "coordinates": {
            "latitude": 41.0195403,
            "longitude": 28.5845754
        },
        "tags": [
            "school"
        ]
    },
    {
        "name": "Büyükçekmece Atatürk Anadolu Lisesi",
        "description": "No description available",
        "location": "Türkiye/İstanbul",
        "coordinates": {
            "latitude": 41.0199015,
            "longitude": 28.5851066
        },
        "tags": [
            "school"
        ]
    },
    {
        "name": "Unknown Place",
        "description": "No description available",
        "location": "Türkiye/İstanbul",
        "coordinates": {
            "latitude": 41.1870724,
            "longitude": 28.9695684
        },
        "tags": [
            "parking"
        ]
    },
    {
        "name": "Yenidoğu Okulları Sancaktepe Kampüsü",
        "description": "No description available",
        "location": "Türkiye/İstanbul",
        "coordinates": {
            "latitude": 40.974655,
            "longitude": 29.2435776
        },
        "tags": [
            "school"
        ]
    },
    {
        "name": "Üsküdar University South Campus",
        "description": "No description available",
        "location": "Türkiye/İstanbul",
        "coordinates": {
            "latitude": 41.0225103,
            "longitude": 29.0404238
        },
        "tags": [
            "university"
        ]
    },
    {
        "name": "Unknown Place",
        "description": "No description available",
        "location": "Türkiye/İstanbul",
        "coordinates": {
            "latitude": 41.1875606,
            "longitude": 28.9667735
        },
        "tags": [
            "parking"
        ]
    },
    {
        "name": "İstanbul Aydın Üniversitesi",
        "description": "No description available",
        "location": "İstanbul",
        "coordinates": {
            "latitude": 40.9917681,
            "longitude": 28.7966744
        },
        "tags": [
            "university"
        ]
    },
    {
        "name": "Unknown Place",
        "description": "No description available",
        "location": "Türkiye/İstanbul",
        "coordinates": {
            "latitude": 41.0632368,
            "longitude": 29.1603904
        },
        "tags": [
            "place_of_worship"
        ]
    },
    {
        "name": "Unknown Place",
        "description": "No description available",
        "location": "Türkiye/İstanbul",
        "coordinates": {
            "latitude": 40.9740083,
            "longitude": 28.8682827
        },
        "tags": [
            "parking"
        ]
    },
    {
        "name": "Unknown Place",
        "description": "No description available",
        "location": "İstanbul",
        "coordinates": {
            "latitude": 40.8906669,
            "longitude": 29.2536532
        },
        "tags": [
            "restaurant"
        ]
    },
    {
        "name": "Unknown Place",
        "description": "No description available",
        "location": "Türkiye/İstanbul",
        "coordinates": {
            "latitude": 40.8905598,
            "longitude": 29.2539577
        },
        "tags": [
            "parking"
        ]
    },
    {
        "name": "Unknown Place",
        "description": "No description available",
        "location": "Türkiye/İstanbul",
        "coordinates": {
            "latitude": 40.8902955,
            "longitude": 29.253985
        },
        "tags": [
            "parking"
        ]
    },
    {
        "name": "Orion Surgery Center",
        "description": "No description available",
        "location": "Türkiye/İstanbul",
        "coordinates": {
            "latitude": 41.0901207,
            "longitude": 28.9819751
        },
        "tags": [
            "hospital"
        ]
    },
    {
        "name": "Unknown Place",
        "description": "No description available",
        "location": "Türkiye/İstanbul",
        "coordinates": {
            "latitude": 41.0372548,
            "longitude": 28.8866494
        },
        "tags": [
            "parking"
        ]
    },
    {
        "name": "Unknown Place",
        "description": "No description available",
        "location": "Türkiye/İstanbul",
        "coordinates": {
            "latitude": 40.9515961,
            "longitude": 29.1375404
        },
        "tags": [
            "parking"
        ]
    },
    {
        "name": "Sultanahmet Camii",
        "description": "No description available",
        "location": "İstanbul",
        "coordinates": {
            "latitude": 41.0054066,
            "longitude": 28.9766495
        },
        "tags": [
            "attraction",
            "mosque",
            "place_of_worship"
        ]
    },
    {
        "name": "Marmara Üniversitesi Recep Tayyip Erdoğan Yerleşkesi",
        "description": "No description available",
        "location": "Türkiye/İstanbul",
        "coordinates": {
            "latitude": 40.9599092,
            "longitude": 29.1289641
        },
        "tags": [
            "university"
        ]
    },
    {
        "name": "Koca Sinan Paşa Külliyesi",
        "description": "No description available",
        "location": "Türkiye/İstanbul",
        "coordinates": {
            "latitude": 41.0088733,
            "longitude": 28.9690997
        },
        "tags": [
            "place_of_worship"
        ]
    },
    {
        "name": "Özel Yaşar Hastanesi",
        "description": "No description available",
        "location": "Bakırköy/İstanbul",
        "coordinates": {
            "latitude": 40.9837641,
            "longitude": 28.8728374
        },
        "tags": [
            "hospital"
        ]
    },
    {
        "name": "Nuruosmaniye Camisi",
        "description": "No description available",
        "location": "Türkiye/İstanbul",
        "coordinates": {
            "latitude": 41.0104074,
            "longitude": 28.9703815
        },
        "tags": [
            "attraction",
            "yes",
            "place_of_worship"
        ]
    },
    {
        "name": "Sokullu Mehmet Paşa Medresesi",
        "description": "No description available",
        "location": "Türkiye/İstanbul",
        "coordinates": {
            "latitude": 41.046905,
            "longitude": 28.9344491
        },
        "tags": [
            "place_of_worship"
        ]
    },
    {
        "name": "Unknown Place",
        "description": "No description available",
        "location": "Türkiye/İstanbul",
        "coordinates": {
            "latitude": 41.007236,
            "longitude": 29.1101449
        },
        "tags": [
            "parking"
        ]
    }
]