[
    {
        "name": "Taksim Gezi Parkı",
        "description": "No description available",
        "location": "İstanbul",
        "coordinates": {
            "latitude": 41.0388679,
            "longitude": 28.9869032
        },
        "tags": [
            "park"
        ]
    },
    {
        "name": "Alay Meydanı",
        "description": "No description available",
        "location": "Türkiye/İstanbul",
        "coordinates": {
            "latitude": 41.0100858,
            "longitude": 28.9817985
        },
        "tags": [
            "park"
        ]
    },
    {
        "name": "Ihlamur Kasrı",
        "description": "No description available",
        "location": "İstanbul",
        "coordinates": {
            "latitude": 41.0513081,
            "longitude": 29.0013311
        },
        "tags": [
            "attraction",
            "park"
        ]
    },
    {
        "name": "Dünya Barış Parkı",
        "description": "No description available",
        "location": "Türkiye/İstanbul",
        "coordinates": {
            "latitude": 41.0502722,
            "longitude": 29.0030301
        },
        "tags": [
            "park"
        ]
    },
    {
        "name": "Abbasağa Parkı",
        "description": "No description available",
        "location": "Türkiye/İstanbul",
        "coordinates": {
            "latitude": 41.0465446,
            "longitude": 29.0063488
        },
        "tags": [
            "park"
        ]
    },
    {
        "name": "Cihangir Parkı",
        "description": "No description available",
        "location": "Türkiye/İstanbul",
        "coordinates": {
            "latitude": 41.0318137,
            "longitude": 28.9858347
        },
        "tags": [
            "park"
        ]
    },
    {
        "name": "Fındıklı Parkı",
        "description": "No description available",
        "location": "Türkiye/İstanbul",
        "coordinates": {
            "latitude": 41.0314733,
            "longitude": 28.9900236
        },
        "tags": [
            "park"
        ]
    },
    {
        "name": "İnönü Parkı",
        "description": "No description available",
        "location": "İstanbul",
        "coordinates": {
            "latitude": 41.0419152,
            "longitude": 28.9969143
        },
        "tags": [
            "park"
        ]
    },
    {
        "name": "Dolmabahçe Sarayı",
        "description": "No description available",
        "location": "Türkiye/İstanbul",
        "coordinates": {
            "latitude": 41.0390167,
            "longitude": 28.9996491
        },
        "tags": [
            "park"
        ]
    },
    {
        "name": "Unknown Place",
        "description": "No description available",
        "location": "Türkiye/İstanbul",
        "coordinates": {
            "latitude": 41.0046025,
            "longitude": 28.9688504
        },
        "tags": [
            "park"
        ]
    },
    {
        "name": "Unknown Place",
        "description": "No description available",
        "location": "Türkiye/İstanbul",
        "coordinates": {
            "latitude": 41.0071907,
            "longitude": 28.9781347
        },
        "tags": [
            "park"
        ]
    },
    {
        "name": "Unknown Place",
        "description": "No description available",
        "location": "Türkiye/İstanbul",
        "coordinates": {
            "latitude": 41.007527,
            "longitude": 28.9755381
        },
        "tags": [
            "park"
        ]
    },
    {
        "name": "Unknown Place",
        "description": "No description available",
        "location": "Türkiye/İstanbul",
        "coordinates": {
            "latitude": 41.0145717,
            "longitude": 28.9566155
        },
        "tags": [
            "park"
        ]
    },
    {
        "name": "Fatih Anıt Parkı",
        "description": "No description available",
        "location": "İstanbul",
        "coordinates": {
            "latitude": 41.0157336,
            "longitude": 28.9543428
        },
        "tags": [
            "park"
        ]
    },
    {
        "name": "Çinili Parkı",
        "description": "No description available",
        "location": "Türkiye/İstanbul",
        "coordinates": {
            "latitude": 41.0231955,
            "longitude": 29.0297536
        },
        "tags": [
            "park"
        ]
    },
    {
        "name": "Gülhane Parkı",
        "description": "No description available",
        "location": "İstanbul",
        "coordinates": {
            "latitude": 41.0130989,
            "longitude": 28.9823101
        },
        "tags": [
            "park"
        ]
    },
    {
        "name": "Unknown Place",
        "description": "No description available",
        "location": "Türkiye/İstanbul",
        "coordinates": {
            "latitude": 41.0109208,
            "longitude": 28.9481472
        },
        "tags": [
            "park"
        ]
    },
    {
        "name": "Doğancılar Parkı",
        "description": "No description available",
        "location": "İstanbul",
        "coordinates": {
            "latitude": 41.0188481,
            "longitude": 29.0132946
        },
        "tags": [
            "park"
        ]
    },
    {
        "name": "Selimiye Parkı",
        "description": "No description available",
        "location": "Türkiye/İstanbul",
        "coordinates": {
            "latitude": 41.0108534,
            "longitude": 29.0193876
        },
        "tags": [
            "park"
        ]
    },
    {
        "name": "Küçükyalı-İdealtepe Kara ve Sahil Parkı",
        "description": "No description available",
        "location": "Türkiye/İstanbul",
        "coordinates": {
            "latitude": 40.9398709,
            "longitude": 29.1082132
        },
        "tags": [
            "park"
        ]
    },
    {
        "name": "Maçka Demokrasi Parkı",
        "description": "No description available",
        "location": "Türkiye/İstanbul",
        "coordinates": {
            "latitude": 41.0443372,
            "longitude": 28.9940096
        },
        "tags": [
            "park"
        ]
    },
    {
        "name": "Onur Parkı",
        "description": "No description available",
        "location": "Türkiye/İstanbul",
        "coordinates": {
            "latitude": 40.8381179,
            "longitude": 29.2996912
        },
        "tags": [
            "park"
        ]
    },
    {
        "name": "Semahat Arsel Spor Salonu",
        "description": "No description available",
        "location": "Türkiye/İstanbul",
        "coordinates": {
            "latitude": 41.2074109,
            "longitude": 29.0725192
        },
        "tags": [
            "sports_centre"
        ]
    },
    {
        "name": "Unknown Place",
        "description": "No description available",
        "location": "Türkiye/İstanbul",
        "coordinates": {
            "latitude": 41.0175927,
            "longitude": 29.0158699
        },
        "tags": [
            "park"
        ]
    },
    {
        "name": "Unknown Place",
        "description": "No description available",
        "location": "Türkiye/İstanbul",
        "coordinates": {
            "latitude": 40.8895004,
            "longitude": 29.1765496
        },
        "tags": [
            "park"
        ]
    },
    {
        "name": "Unknown Place",
        "description": "No description available",
        "location": "Türkiye/İstanbul",
        "coordinates": {
            "latitude": 40.8803362,
            "longitude": 29.2116216
        },
        "tags": [
            "park"
        ]
    },
    {
        "name": "Cemil Meriç Parkı",
        "description": "No description available",
        "location": "Türkiye/İstanbul",
        "coordinates": {
            "latitude": 41.0396911,
            "longitude": 28.9435919
        },
        "tags": [
            "park"
        ]
    },
    {
        "name": "Recep Tayyip Erdoğan Stadyumu",
        "description": "No description available",
        "location": "Türkiye/İstanbul",
        "coordinates": {
            "latitude": 41.0327859,
            "longitude": 28.9723708
        },
        "tags": [
            "stadium"
        ]
    },
    {
        "name": "Bahçelievler Parkı",
        "description": "No description available",
        "location": "Türkiye/İstanbul",
        "coordinates": {
            "latitude": 40.8823258,
            "longitude": 29.2387556
        },
        "tags": [
            "park"
        ]
    },
    {
        "name": "Unknown Place",
        "description": "No description available",
        "location": "Türkiye/İstanbul",
        "coordinates": {
            "latitude": 40.9628547,
            "longitude": 29.0613981
        },
        "tags": [
            "track"
        ]
    },
    {
        "name": "Unknown Place",
        "description": "No description available",
        "location": "Türkiye/İstanbul",
        "coordinates": {
            "latitude": 40.9661598,
            "longitude": 29.0549017
        },
        "tags": [
            "track"
        ]
    },
    {
        "name": "Gültekin Parkı",
        "description": "No description available",
        "location": "Türkiye/İstanbul",
        "coordinates": {
            "latitude": 41.0517107,
            "longitude": 29.02505
        },
        "tags": [
            "park"
        ]
    },
    {
        "name": "Ortabayır Parkı",
        "description": "No description available",
        "location": "Türkiye/İstanbul",
        "coordinates": {
            "latitude": 41.0545727,
            "longitude": 29.0249991
        },
        "tags": [
            "park"
        ]
    },
    {
        "name": "Cemil Topuzlu Parkı",
        "description": "No description available",
        "location": "Türkiye/İstanbul",
        "coordinates": {
            "latitude": 41.0540891,
            "longitude": 29.0346168
        },
        "tags": [
            "park"
        ]
    },
    {
        "name": "Bebek Parkı",
        "description": "No description available",
        "location": "İstanbul",
        "coordinates": {
            "latitude": 41.0759099,
            "longitude": 29.0437867
        },
        "tags": [
            "park"
        ]
    },
    {
        "name": "Ortaköy Sahil Parkı",
        "description": "No description available",
        "location": "Türkiye/İstanbul",
        "coordinates": {
            "latitude": 41.047475,
            "longitude": 29.0270858
        },
        "tags": [
            "park"
        ]
    },
    {
        "name": "Havacılar Parkı",
        "description": "No description available",
        "location": "Türkiye/İstanbul",
        "coordinates": {
            "latitude": 41.0567895,
            "longitude": 29.0280139
        },
        "tags": [
            "park"
        ]
    },
    {
        "name": "Trabzon Parkı",
        "description": "No description available",
        "location": "Türkiye/İstanbul",
        "coordinates": {
            "latitude": 41.0287447,
            "longitude": 29.138288
        },
        "tags": [
            "park"
        ]
    },
    {
        "name": "Ambarlıdere Parkı",
        "description": "No description available",
        "location": "Türkiye/İstanbul",
        "coordinates": {
            "latitude": 41.0635788,
            "longitude": 29.0296232
        },
        "tags": [
            "park"
        ]
    },
    {
        "name": "Unknown Place",
        "description": "No description available",
        "location": "Türkiye/İstanbul",
        "coordinates": {
            "latitude": 40.936142,
            "longitude": 29.1201791
        },
        "tags": [
            "playground"
        ]
    },
    {
        "name": "Unknown Place",
        "description": "No description available",
        "location": "Türkiye/İstanbul",
        "coordinates": {
            "latitude": 41.19171,
            "longitude": 28.903754
        },
        "tags": [
            "water_park"
        ]
    },
    {
        "name": "Unknown Place",
        "description": "No description available",
        "location": "Türkiye/İstanbul",
        "coordinates": {
            "latitude": 41.0958036,
            "longitude": 29.031941
        },
        "tags": [
            "park"
        ]
    },
    {
        "name": "Unknown Place",
        "description": "No description available",
        "location": "Türkiye/İstanbul",
        "coordinates": {
            "latitude": 41.0793363,
            "longitude": 28.6118414
        },
        "tags": [
            "water_park"
        ]
    },
    {
        "name": "Unknown Place",
        "description": "No description available",
        "location": "Türkiye/İstanbul",
        "coordinates": {
            "latitude": 41.0784405,
            "longitude": 28.610788
        },
        "tags": [
            "park"
        ]
    },
    {
        "name": "Şeker Parkı",
        "description": "No description available",
        "location": "Türkiye/İstanbul",
        "coordinates": {
            "latitude": 41.0712026,
            "longitude": 29.0269652
        },
        "tags": [
            "park"
        ]
    },
    {
        "name": "Ulus Parkı",
        "description": "No description available",
        "location": "Türkiye/İstanbul",
        "coordinates": {
            "latitude": 41.0638646,
            "longitude": 29.0323242
        },
        "tags": [
            "park"
        ]
    },
    {
        "name": "Yahya Kemal Parkı",
        "description": "No description available",
        "location": "Türkiye/İstanbul",
        "coordinates": {
            "latitude": 41.0484226,
            "longitude": 29.0088308
        },
        "tags": [
            "park"
        ]
    },
    {
        "name": "Aydınlık Parkı",
        "description": "No description available",
        "location": "Türkiye/İstanbul",
        "coordinates": {
            "latitude": 41.0547871,
            "longitude": 29.0278905
        },
        "tags": [
            "park"
        ]
    },
    {
        "name": "Kabataş Eğitim Vakfı Anaokulu",
        "description": "No description available",
        "location": "Türkiye/İstanbul",
        "coordinates": {
            "latitude": 41.0472375,
            "longitude": 29.0238457
        },
        "tags": [
            "garden"
        ]
    },
    {
        "name": "Kalamış Parkı",
        "description": "No description available",
        "location": "İstanbul",
        "coordinates": {
            "latitude": 40.9798894,
            "longitude": 29.0381372
        },
        "tags": [
            "park"
        ]
    },
    {
        "name": "Göztepe 60. Yıl Parkı",
        "description": "No description available",
        "location": "İstanbul",
        "coordinates": {
            "latitude": 40.9695088,
            "longitude": 29.0579647
        },
        "tags": [
            "park"
        ]
    },
    {
        "name": "Unknown Place",
        "description": "No description available",
        "location": "Türkiye/İstanbul",
        "coordinates": {
            "latitude": 41.0248426,
            "longitude": 29.0149122
        },
        "tags": [
            "park"
        ]
    },
    {
        "name": "Paşalimanı Parkı",
        "description": "No description available",
        "location": "Türkiye/İstanbul",
        "coordinates": {
            "latitude": 41.0322437,
            "longitude": 29.0222915
        },
        "tags": [
            "park"
        ]
    },
    {
        "name": "Hacıbaba Parkı",
        "description": "No description available",
        "location": "Türkiye/İstanbul",
        "coordinates": {
            "latitude": 41.0290038,
            "longitude": 29.0170485
        },
        "tags": [
            "park"
        ]
    },
    {
        "name": "Unknown Place",
        "description": "No description available",
        "location": "Türkiye/İstanbul",
        "coordinates": {
            "latitude": 41.0524746,
            "longitude": 29.0147386
        },
        "tags": [
            "playground"
        ]
    },
    {
        "name": "Unknown Place",
        "description": "No description available",
        "location": "Türkiye/İstanbul",
        "coordinates": {
            "latitude": 41.0381464,
            "longitude": 28.9867176
        },
        "tags": [
            "playground"
        ]
    },
    {
        "name": "Unknown Place",
        "description": "No description available",
        "location": "Türkiye/İstanbul",
        "coordinates": {
            "latitude": 41.0703034,
            "longitude": 29.006623
        },
        "tags": [
            "park"
        ]
    },
    {
        "name": "Soğanlı Bitkiler Parkı",
        "description": "No description available",
        "location": "Türkiye/İstanbul",
        "coordinates": {
            "latitude": 40.9890539,
            "longitude": 28.9197134
        },
        "tags": [
            "park"
        ]
    },
    {
        "name": "Kuruçeşme Parkı",
        "description": "No description available",
        "location": "İstanbul",
        "coordinates": {
            "latitude": 41.060834,
            "longitude": 29.0380455
        },
        "tags": [
            "park"
        ]
    },
    {
        "name": "Beyoğlu Hacıahmet Parkı",
        "description": "No description available",
        "location": "Türkiye/İstanbul",
        "coordinates": {
            "latitude": 41.0434185,
            "longitude": 28.9727379
        },
        "tags": [
            "park"
        ]
    },
    {
        "name": "Moda Sahil Parkı",
        "description": "No description available",
        "location": "Türkiye/İstanbul",
        "coordinates": {
            "latitude": 40.9815172,
            "longitude": 29.0295344
        },
        "tags": [
            "park"
        ]
    },
    {
        "name": "Yoğurtçu Parkı",
        "description": "No description available",
        "location": "Türkiye/İstanbul",
        "coordinates": {
            "latitude": 40.9852942,
            "longitude": 29.0337078
        },
        "tags": [
            "park"
        ]
    },
    {
        "name": "Ülker Stadyumu",
        "description": "No description available",
        "location": "Istanbul",
        "coordinates": {
            "latitude": 40.9876317,
            "longitude": 29.036943
        },
        "tags": [
            "stadium"
        ]
    },
    {
        "name": "Saray Meydanı",
        "description": "No description available",
        "location": "İstanbul",
        "coordinates": {
            "latitude": 41.0149323,
            "longitude": 28.9289277
        },
        "tags": [
            "park"
        ]
    },
    {
        "name": "Şehremini Çocuk Parkı",
        "description": "No description available",
        "location": "Türkiye/İstanbul",
        "coordinates": {
            "latitude": 41.0148853,
            "longitude": 28.9280166
        },
        "tags": [
            "playground"
        ]
    },
    {
        "name": "Kuru Bostan Çocuk Parkı",
        "description": "No description available",
        "location": "Türkiye/İstanbul",
        "coordinates": {
            "latitude": 41.0113375,
            "longitude": 28.9336517
        },
        "tags": [
            "playground"
        ]
    },
    {
        "name": "Açık Otopark",
        "description": "No description available",
        "location": "Türkiye/İstanbul",
        "coordinates": {
            "latitude": 41.0151078,
            "longitude": 28.9317498
        },
        "tags": [
            "garden",
            "parking"
        ]
    },
    {
        "name": "Unknown Place",
        "description": "No description available",
        "location": "Türkiye/İstanbul",
        "coordinates": {
            "latitude": 41.0154354,
            "longitude": 28.9311533
        },
        "tags": [
            "garden"
        ]
    },
    {
        "name": "Unknown Place",
        "description": "No description available",
        "location": "Türkiye/İstanbul",
        "coordinates": {
            "latitude": 41.0907732,
            "longitude": 29.3246926
        },
        "tags": [
            "water_park"
        ]
    },
    {
        "name": "Unknown Place",
        "description": "No description available",
        "location": "Türkiye/İstanbul",
        "coordinates": {
            "latitude": 41.0968452,
            "longitude": 29.3290284
        },
        "tags": [
            "swimming_pool"
        ]
    },
    {
        "name": "Unknown Place",
        "description": "No description available",
        "location": "Türkiye/İstanbul",
        "coordinates": {
            "latitude": 41.0720278,
            "longitude": 28.9858733
        },
        "tags": [
            "park"
        ]
    },
    {
        "name": "Veliefendi Hipodromu",
        "description": "No description available",
        "location": "Türkiye/İstanbul",
        "coordinates": {
            "latitude": 40.9867833,
            "longitude": 28.8889136
        },
        "tags": [
            "sports_centre"
        ]
    },
    {
        "name": "Unknown Place",
        "description": "No description available",
        "location": "Türkiye/İstanbul",
        "coordinates": {
            "latitude": 40.98678,
            "longitude": 28.8889122
        },
        "tags": [
            "track"
        ]
    },
    {
        "name": "Unknown Place",
        "description": "No description available",
        "location": "Türkiye/İstanbul",
        "coordinates": {
            "latitude": 40.9867759,
            "longitude": 28.8889176
        },
        "tags": [
            "track"
        ]
    },
    {
        "name": "Unknown Place",
        "description": "No description available",
        "location": "Türkiye/İstanbul",
        "coordinates": {
            "latitude": 40.9867719,
            "longitude": 28.8889283
        },
        "tags": [
            "track"
        ]
    },
    {
        "name": "Unknown Place",
        "description": "No description available",
        "location": "Türkiye/İstanbul",
        "coordinates": {
            "latitude": 41.0907672,
            "longitude": 29.3246694
        },
        "tags": [
            "water_park"
        ]
    },
    {
        "name": "Unknown Place",
        "description": "No description available",
        "location": "Türkiye/İstanbul",
        "coordinates": {
            "latitude": 41.0048585,
            "longitude": 28.9688924
        },
        "tags": [
            "playground"
        ]
    },
    {
        "name": "Unknown Place",
        "description": "No description available",
        "location": "Türkiye/İstanbul",
        "coordinates": {
            "latitude": 41.0136111,
            "longitude": 28.9305214
        },
        "tags": [
            "garden"
        ]
    },
    {
        "name": "Unknown Place",
        "description": "No description available",
        "location": "Türkiye/İstanbul",
        "coordinates": {
            "latitude": 41.0148407,
            "longitude": 28.9308409
        },
        "tags": [
            "garden"
        ]
    },
    {
        "name": "Unknown Place",
        "description": "No description available",
        "location": "Türkiye/İstanbul",
        "coordinates": {
            "latitude": 41.0156411,
            "longitude": 28.9318393
        },
        "tags": [
            "garden"
        ]
    },
    {
        "name": "Unknown Place",
        "description": "No description available",
        "location": "Türkiye/İstanbul",
        "coordinates": {
            "latitude": 41.0684645,
            "longitude": 28.8573867
        },
        "tags": [
            "park"
        ]
    },
    {
        "name": "Bahçeşehir Doğa Parkı",
        "description": "No description available",
        "location": "Türkiye/İstanbul",
        "coordinates": {
            "latitude": 41.0670298,
            "longitude": 28.6937855
        },
        "tags": [
            "park"
        ]
    },
    {
        "name": "Unknown Place",
        "description": "No description available",
        "location": "Türkiye/İstanbul",
        "coordinates": {
            "latitude": 41.0623983,
            "longitude": 28.6991399
        },
        "tags": [
            "track"
        ]
    },
    {
        "name": "Bayrampaşa Şehir Parkı",
        "description": "No description available",
        "location": "Türkiye/İstanbul",
        "coordinates": {
            "latitude": 41.0620454,
            "longitude": 28.88738
        },
        "tags": [
            "park"
        ]
    },
    {
        "name": "Unknown Place",
        "description": "No description available",
        "location": "Türkiye/İstanbul",
        "coordinates": {
            "latitude": 41.0483806,
            "longitude": 28.9542154
        },
        "tags": [
            "park"
        ]
    },
    {
        "name": "Unknown Place",
        "description": "No description available",
        "location": "Türkiye/İstanbul",
        "coordinates": {
            "latitude": 41.050861,
            "longitude": 28.9634718
        },
        "tags": [
            "park"
        ]
    },
    {
        "name": "Şehit Şeyhmuz Demir Parkı",
        "description": "No description available",
        "location": "Türkiye/İstanbul",
        "coordinates": {
            "latitude": 41.0406713,
            "longitude": 28.9496136
        },
        "tags": [
            "park"
        ]
    },
    {
        "name": "Okçular Vakfı",
        "description": "No description available",
        "location": "İstanbul",
        "coordinates": {
            "latitude": 41.0418891,
            "longitude": 28.9599368
        },
        "tags": [
            "sports_centre"
        ]
    },
    {
        "name": "Çıksalın Parkı",
        "description": "No description available",
        "location": "Türkiye/İstanbul",
        "coordinates": {
            "latitude": 41.0488325,
            "longitude": 28.9518118
        },
        "tags": [
            "park"
        ]
    },
    {
        "name": "Unknown Place",
        "description": "No description available",
        "location": "Türkiye/İstanbul",
        "coordinates": {
            "latitude": 41.0366648,
            "longitude": 28.9640755
        },
        "tags": [
            "park"
        ]
    },
    {
        "name": "Mahmut Şevket Paşa Parkı",
        "description": "No description available",
        "location": "İstanbul",
        "coordinates": {
            "latitude": 41.0542997,
            "longitude": 28.9604758
        },
        "tags": [
            "park"
        ]
    },
    {
        "name": "Unknown Place",
        "description": "No description available",
        "location": "Türkiye/İstanbul",
        "coordinates": {
            "latitude": 41.0491075,
            "longitude": 28.9634852
        },
        "tags": [
            "park"
        ]
    },
    {
        "name": "Unknown Place",
        "description": "No description available",
        "location": "Türkiye/İstanbul",
        "coordinates": {
            "latitude": 41.0388552,
            "longitude": 28.9560745
        },
        "tags": [
            "park"
        ]
    },
    {
        "name": "Unknown Place",
        "description": "No description available",
        "location": "Türkiye/İstanbul",
        "coordinates": {
            "latitude": 41.015948,
            "longitude": 28.9307569
        },
        "tags": [
            "garden"
        ]
    },
    {
        "name": "Cankurtaran Parkı",
        "description": "No description available",
        "location": "Türkiye/İstanbul",
        "coordinates": {
            "latitude": 41.0049132,
            "longitude": 28.9826766
        },
        "tags": [
            "park"
        ]
    },
    {
        "name": "Unknown Place",
        "description": "No description available",
        "location": "Türkiye/İstanbul",
        "coordinates": {
            "latitude": 41.0166634,
            "longitude": 28.9723886
        },
        "tags": [
            "garden"
        ]
    },
    {
        "name": "Unknown Place",
        "description": "No description available",
        "location": "Türkiye/İstanbul",
        "coordinates": {
            "latitude": 41.0118682,
            "longitude": 28.9642739
        },
        "tags": [
            "park"
        ]
    },
    {
        "name": "Unknown Place",
        "description": "No description available",
        "location": "Türkiye/İstanbul",
        "coordinates": {
            "latitude": 41.0140551,
            "longitude": 28.9635071
        },
        "tags": [
            "park"
        ]
    },
    {
        "name": "Unknown Place",
        "description": "No description available",
        "location": "Türkiye/İstanbul",
        "coordinates": {
            "latitude": 41.0143688,
            "longitude": 28.9634109
        },
        "tags": [
            "park"
        ]
    },
    {
        "name": "Unknown Place",
        "description": "No description available",
        "location": "Türkiye/İstanbul",
        "coordinates": {
            "latitude": 41.0137329,
            "longitude": 28.9635621
        },
        "tags": [
            "park"
        ]
    },
    {
        "name": "Unknown Place",
        "description": "No description available",
        "location": "Türkiye/İstanbul",
        "coordinates": {
            "latitude": 41.0147652,
            "longitude": 28.9633432
        },
        "tags": [
            "garden"
        ]
    },
    {
        "name": "Unknown Place",
        "description": "No description available",
        "location": "Türkiye/İstanbul",
        "coordinates": {
            "latitude": 41.014077,
            "longitude": 28.9637935
        },
        "tags": [
            "park"
        ]
    },
    {
        "name": "Unknown Place",
        "description": "No description available",
        "location": "Türkiye/İstanbul",
        "coordinates": {
            "latitude": 41.0137694,
            "longitude": 28.9638646
        },
        "tags": [
            "park"
        ]
    },
    {
        "name": "Unknown Place",
        "description": "No description available",
        "location": "Türkiye/İstanbul",
        "coordinates": {
            "latitude": 41.0144185,
            "longitude": 28.9637633
        },
        "tags": [
            "park"
        ]
    },
    {
        "name": "Unknown Place",
        "description": "No description available",
        "location": "Türkiye/İstanbul",
        "coordinates": {
            "latitude": 41.0138115,
            "longitude": 28.9646815
        },
        "tags": [
            "park"
        ]
    },
    {
        "name": "Unknown Place",
        "description": "No description available",
        "location": "Türkiye/İstanbul",
        "coordinates": {
            "latitude": 41.0136019,
            "longitude": 28.9650824
        },
        "tags": [
            "sports_centre"
        ]
    },
    {
        "name": "Unknown Place",
        "description": "No description available",
        "location": "Türkiye/İstanbul",
        "coordinates": {
            "latitude": 41.0136481,
            "longitude": 28.9631473
        },
        "tags": [
            "park"
        ]
    },
    {
        "name": "Unknown Place",
        "description": "No description available",
        "location": "Türkiye/İstanbul",
        "coordinates": {
            "latitude": 41.012833,
            "longitude": 28.9655853
        },
        "tags": [
            "sports_centre"
        ]
    },
    {
        "name": "Unknown Place",
        "description": "No description available",
        "location": "Türkiye/İstanbul",
        "coordinates": {
            "latitude": 41.0130915,
            "longitude": 28.958258
        },
        "tags": [
            "park"
        ]
    },
    {
        "name": "Unknown Place",
        "description": "No description available",
        "location": "Türkiye/İstanbul",
        "coordinates": {
            "latitude": 41.0161961,
            "longitude": 28.9639013
        },
        "tags": [
            "garden"
        ]
    },
    {
        "name": "Sarsılmaz Parkı",
        "description": "No description available",
        "location": "Türkiye/İstanbul",
        "coordinates": {
            "latitude": 41.0140565,
            "longitude": 28.9670017
        },
        "tags": [
            "park"
        ]
    },
    {
        "name": "Sobacılar Önü Parkı",
        "description": "No description available",
        "location": "İstanbul",
        "coordinates": {
            "latitude": 41.0181846,
            "longitude": 28.9675973
        },
        "tags": [
            "park"
        ]
    },
    {
        "name": "Unknown Place",
        "description": "No description available",
        "location": "Türkiye/İstanbul",
        "coordinates": {
            "latitude": 41.0363456,
            "longitude": 28.9837542
        },
        "tags": [
            "garden"
        ]
    },
    {
        "name": "İstanbul İsveç Başkonsolosluğu",
        "description": "No description available",
        "location": "Türkiye/İstanbul",
        "coordinates": {
            "latitude": 41.0287127,
            "longitude": 28.9755433
        },
        "tags": [
            "garden"
        ]
    },
    {
        "name": "Unknown Place",
        "description": "No description available",
        "location": "Türkiye/İstanbul",
        "coordinates": {
            "latitude": 41.0138277,
            "longitude": 28.9336239
        },
        "tags": [
            "garden"
        ]
    },
    {
        "name": "Unknown Place",
        "description": "No description available",
        "location": "Türkiye/İstanbul",
        "coordinates": {
            "latitude": 41.0078533,
            "longitude": 29.1403069
        },
        "tags": [
            "playground"
        ]
    },
    {
        "name": "Atatürk Olimpiyat Stadyumu",
        "description": "No description available",
        "location": "Türkiye/İstanbul",
        "coordinates": {
            "latitude": 41.0744735,
            "longitude": 28.7656614
        },
        "tags": [
            "stadium"
        ]
    },
    {
        "name": "Unknown Place",
        "description": "No description available",
        "location": "Türkiye/İstanbul",
        "coordinates": {
            "latitude": 41.0533716,
            "longitude": 29.2359542
        },
        "tags": [
            "swimming_pool"
        ]
    },
    {
        "name": "Unknown Place",
        "description": "No description available",
        "location": "Türkiye/İstanbul",
        "coordinates": {
            "latitude": 40.9591901,
            "longitude": 28.8395736
        },
        "tags": [
            "swimming_pool"
        ]
    },
    {
        "name": "İTÜ Olimpik Yüzme Havuzu",
        "description": "No description available",
        "location": "Türkiye/İstanbul",
        "coordinates": {
            "latitude": 41.1012635,
            "longitude": 29.0265398
        },
        "tags": [
            "swimming_pool"
        ]
    },
    {
        "name": "Beden Eğitimi Bölümü",
        "description": "No description available",
        "location": "Türkiye/İstanbul",
        "coordinates": {
            "latitude": 41.102965,
            "longitude": 29.0212876
        },
        "tags": [
            "sports_centre"
        ]
    },
    {
        "name": "Unknown Place",
        "description": "No description available",
        "location": "Türkiye/İstanbul",
        "coordinates": {
            "latitude": 41.0706486,
            "longitude": 29.0427123
        },
        "tags": [
            "park"
        ]
    },
    {
        "name": "Unknown Place",
        "description": "No description available",
        "location": "Türkiye/İstanbul",
        "coordinates": {
            "latitude": 41.1974289,
            "longitude": 29.4272102
        },
        "tags": [
            "swimming_pool"
        ]
    },
    {
        "name": "Dolapdere Bahçe",
        "description": "No description available",
        "location": "Türkiye/İstanbul",
        "coordinates": {
            "latitude": 41.0398618,
            "longitude": 28.9734797
        },
        "tags": [
            "park"
        ]
    },
    {
        "name": "Nakkaştepe Millet Bahçesi",
        "description": "No description available",
        "location": "Türkiye/İstanbul",
        "coordinates": {
            "latitude": 41.0362447,
            "longitude": 29.0370392
        },
        "tags": [
            "park"
        ]
    },
    {
        "name": "Çamlık Parkı",
        "description": "No description available",
        "location": "Türkiye/İstanbul",
        "coordinates": {
            "latitude": 40.9735872,
            "longitude": 29.0512878
        },
        "tags": [
            "park"
        ]
    },
    {
        "name": "Orkide Parkı",
        "description": "No description available",
        "location": "İstanbul",
        "coordinates": {
            "latitude": 41.0259051,
            "longitude": 29.0278141
        },
        "tags": [
            "park"
        ]
    },
    {
        "name": "Maltepe Hasan Polat Stadyumu",
        "description": "No description available",
        "location": "Türkiye/İstanbul",
        "coordinates": {
            "latitude": 40.9204378,
            "longitude": 29.1313454
        },
        "tags": [
            "stadium"
        ]
    },
    {
        "name": "Fidan Parkı",
        "description": "No description available",
        "location": "Türkiye/İstanbul",
        "coordinates": {
            "latitude": 41.0814484,
            "longitude": 29.0258818
        },
        "tags": [
            "park"
        ]
    },
    {
        "name": "Unknown Place",
        "description": "No description available",
        "location": "Türkiye/İstanbul",
        "coordinates": {
            "latitude": 41.0805612,
            "longitude": 29.0263334
        },
        "tags": [
            "park"
        ]
    },
    {
        "name": "Unknown Place",
        "description": "No description available",
        "location": "Türkiye/İstanbul",
        "coordinates": {
            "latitude": 40.971982,
            "longitude": 28.8705504
        },
        "tags": [
            "swimming_pool"
        ]
    },
    {
        "name": "Unknown Place",
        "description": "No description available",
        "location": "Türkiye/İstanbul",
        "coordinates": {
            "latitude": 40.9716954,
            "longitude": 28.8714184
        },
        "tags": [
            "park"
        ]
    },
    {
        "name": "Unknown Place",
        "description": "No description available",
        "location": "Türkiye/İstanbul",
        "coordinates": {
            "latitude": 40.9722156,
            "longitude": 28.8711195
        },
        "tags": [
            "park"
        ]
    },
    {
        "name": "Unknown Place",
        "description": "No description available",
        "location": "Türkiye/İstanbul",
        "coordinates": {
            "latitude": 40.9719413,
            "longitude": 28.87012
        },
        "tags": [
            "swimming_pool"
        ]
    },
    {
        "name": "Unknown Place",
        "description": "No description available",
        "location": "Türkiye/İstanbul",
        "coordinates": {
            "latitude": 40.971001,
            "longitude": 28.8736616
        },
        "tags": [
            "swimming_pool"
        ]
    },
    {
        "name": "Unknown Place",
        "description": "No description available",
        "location": "Türkiye/İstanbul",
        "coordinates": {
            "latitude": 40.9729624,
            "longitude": 28.8697191
        },
        "tags": [
            "park"
        ]
    },
    {
        "name": "Unknown Place",
        "description": "No description available",
        "location": "Türkiye/İstanbul",
        "coordinates": {
            "latitude": 40.9736931,
            "longitude": 28.8750731
        },
        "tags": [
            "park"
        ]
    },
    {
        "name": "Unknown Place",
        "description": "No description available",
        "location": "Türkiye/İstanbul",
        "coordinates": {
            "latitude": 40.9724922,
            "longitude": 28.8730408
        },
        "tags": [
            "park"
        ]
    },
    {
        "name": "Unknown Place",
        "description": "No description available",
        "location": "Türkiye/İstanbul",
        "coordinates": {
            "latitude": 40.9739718,
            "longitude": 28.8717911
        },
        "tags": [
            "park"
        ]
    },
    {
        "name": "Unknown Place",
        "description": "No description available",
        "location": "Türkiye/İstanbul",
        "coordinates": {
            "latitude": 40.9729742,
            "longitude": 28.8721025
        },
        "tags": [
            "park"
        ]
    },
    {
        "name": "Unknown Place",
        "description": "No description available",
        "location": "Türkiye/İstanbul",
        "coordinates": {
            "latitude": 40.9736519,
            "longitude": 28.8742582
        },
        "tags": [
            "park"
        ]
    },
    {
        "name": "Ahmet Cömert Sport Salonu",
        "description": "No description available",
        "location": "Türkiye/İstanbul",
        "coordinates": {
            "latitude": 40.9894838,
            "longitude": 28.8527086
        },
        "tags": [
            "stadium"
        ]
    },
    {
        "name": "Boğaziçi Üniversitesi Hisar Spor Tesisleri",
        "description": "No description available",
        "location": "Türkiye/İstanbul",
        "coordinates": {
            "latitude": 41.0887096,
            "longitude": 29.050572
        },
        "tags": [
            "sports_centre"
        ]
    },
    {
        "name": "Boğaziçi Üniversitesi",
        "description": "No description available",
        "location": "Türkiye/İstanbul",
        "coordinates": {
            "latitude": 41.0844625,
            "longitude": 29.0523753
        },
        "tags": [
            "park"
        ]
    },
    {
        "name": "Beşçeşmeler Parkı",
        "description": "No description available",
        "location": "Türkiye/İstanbul",
        "coordinates": {
            "latitude": 40.9215145,
            "longitude": 29.1292
        },
        "tags": [
            "park"
        ]
    },
    {
        "name": "Şenol Güneş Parkı",
        "description": "No description available",
        "location": "Türkiye/İstanbul",
        "coordinates": {
            "latitude": 41.0379734,
            "longitude": 29.059802
        },
        "tags": [
            "park"
        ]
    },
    {
        "name": "Cüneyt Arkın Sanatçılar Parkı",
        "description": "No description available",
        "location": "Türkiye/İstanbul",
        "coordinates": {
            "latitude": 41.0828064,
            "longitude": 29.0298271
        },
        "tags": [
            "park"
        ]
    },
    {
        "name": "Dostluk Parkı",
        "description": "No description available",
        "location": "Türkiye/İstanbul",
        "coordinates": {
            "latitude": 41.0163687,
            "longitude": 29.0805999
        },
        "tags": [
            "park"
        ]
    },
    {
        "name": "Unknown Place",
        "description": "No description available",
        "location": "Türkiye/İstanbul",
        "coordinates": {
            "latitude": 41.0163493,
            "longitude": 29.08401
        },
        "tags": [
            "park"
        ]
    },
    {
        "name": "Altınköy Parkı",
        "description": "No description available",
        "location": "Türkiye/İstanbul",
        "coordinates": {
            "latitude": 41.0158354,
            "longitude": 29.0840252
        },
        "tags": [
            "park"
        ]
    },
    {
        "name": "Turgut Reis Parkı",
        "description": "No description available",
        "location": "Türkiye/İstanbul",
        "coordinates": {
            "latitude": 41.0170394,
            "longitude": 29.085209
        },
        "tags": [
            "park"
        ]
    },
    {
        "name": "Şehit Mehmet Hüseyin Balta Parkı",
        "description": "No description available",
        "location": "İstanbul",
        "coordinates": {
            "latitude": 41.0297802,
            "longitude": 28.936216
        },
        "tags": [
            "park"
        ]
    },
    {
        "name": "Edirnekapı Sur Dipleri",
        "description": "No description available",
        "location": "İstanbul",
        "coordinates": {
            "latitude": 41.0298838,
            "longitude": 28.9346671
        },
        "tags": [
            "park"
        ]
    },
    {
        "name": "Unknown Place",
        "description": "No description available",
        "location": "Türkiye/İstanbul",
        "coordinates": {
            "latitude": 41.0415962,
            "longitude": 28.9878314
        },
        "tags": [
            "park"
        ]
    },
    {
        "name": "Maçka Sanat Parkı",
        "description": "No description available",
        "location": "Türkiye/İstanbul",
        "coordinates": {
            "latitude": 41.0493967,
            "longitude": 28.9902568
        },
        "tags": [
            "park"
        ]
    },
    {
        "name": "Habitat Parkı",
        "description": "No description available",
        "location": "İstanbul",
        "coordinates": {
            "latitude": 41.0481643,
            "longitude": 28.9910526
        },
        "tags": [
            "park"
        ]
    },
    {
        "name": "Abide-i Hürriyet ve Şehitlik Parkı",
        "description": "No description available",
        "location": "İstanbul",
        "coordinates": {
            "latitude": 41.0684046,
            "longitude": 28.9826301
        },
        "tags": [
            "park"
        ]
    },
    {
        "name": "Duatepe Parkı",
        "description": "No description available",
        "location": "Türkiye/İstanbul",
        "coordinates": {
            "latitude": 41.0874522,
            "longitude": 29.05081
        },
        "tags": [
            "park"
        ]
    },
    {
        "name": "Küçükçekmece Menekşe Parkı",
        "description": "No description available",
        "location": "Türkiye/İstanbul",
        "coordinates": {
            "latitude": 40.9823939,
            "longitude": 28.7610951
        },
        "tags": [
            "park"
        ]
    },
    {
        "name": "Şehit Mahmut Ergül Parkı",
        "description": "No description available",
        "location": "Türkiye/İstanbul",
        "coordinates": {
            "latitude": 40.995159,
            "longitude": 28.7931388
        },
        "tags": [
            "park"
        ]
    },
    {
        "name": "Spor Merkezi",
        "description": "No description available",
        "location": "Türkiye/İstanbul",
        "coordinates": {
            "latitude": 40.8936166,
            "longitude": 29.3746431
        },
        "tags": [
            "sports_centre"
        ]
    },
    {
        "name": "Japon Bahçesi",
        "description": "No description available",
        "location": "İstanbul",
        "coordinates": {
            "latitude": 41.0971714,
            "longitude": 29.0520719
        },
        "tags": [
            "park"
        ]
    },
    {
        "name": "Hidayet Türkoğlu Spor Kompleksi",
        "description": "No description available",
        "location": "Türkiye/İstanbul",
        "coordinates": {
            "latitude": 41.0650885,
            "longitude": 28.8847103
        },
        "tags": [
            "sports_centre"
        ]
    },
    {
        "name": "Unknown Place",
        "description": "No description available",
        "location": "Türkiye/İstanbul",
        "coordinates": {
            "latitude": 41.0042519,
            "longitude": 28.6242769
        },
        "tags": [
            "playground"
        ]
    },
    {
        "name": "Şehit Gaffar Okkan Parkı",
        "description": "No description available",
        "location": "Türkiye/İstanbul",
        "coordinates": {
            "latitude": 40.9877682,
            "longitude": 28.7838675
        },
        "tags": [
            "park"
        ]
    },
    {
        "name": "Atatürk Ormanı",
        "description": "No description available",
        "location": "Türkiye/İstanbul",
        "coordinates": {
            "latitude": 40.9779753,
            "longitude": 28.7863408
        },
        "tags": [
            "park"
        ]
    },
    {
        "name": "Seyrantepe 700. Yıl Parkı",
        "description": "No description available",
        "location": "Türkiye/İstanbul",
        "coordinates": {
            "latitude": 41.0970684,
            "longitude": 28.989368
        },
        "tags": [
            "park"
        ]
    },
    {
        "name": "Amfili Park",
        "description": "No description available",
        "location": "Türkiye/İstanbul",
        "coordinates": {
            "latitude": 40.9905021,
            "longitude": 29.1308377
        },
        "tags": [
            "park"
        ]
    },
    {
        "name": "Fenerbahçe Spor Kulübü Dereağzı Tesisleri",
        "description": "No description available",
        "location": "Türkiye/İstanbul",
        "coordinates": {
            "latitude": 40.9833988,
            "longitude": 29.0356482
        },
        "tags": [
            "sports_centre"
        ]
    },
    {
        "name": "Unknown Place",
        "description": "No description available",
        "location": "Türkiye/İstanbul",
        "coordinates": {
            "latitude": 40.9829029,
            "longitude": 29.0980185
        },
        "tags": [
            "park"
        ]
    },
    {
        "name": "Selamiçeşme Özgürlük Parkı",
        "description": "No description available",
        "location": "Türkiye/İstanbul",
        "coordinates": {
            "latitude": 40.97928,
            "longitude": 29.0564448
        },
        "tags": [
            "park"
        ]
    },
    {
        "name": "Cengiz Aytmatov Parkı",
        "description": "No description available",
        "location": "Türkiye/İstanbul",
        "coordinates": {
            "latitude": 40.9202208,
            "longitude": 29.1614552
        },
        "tags": [
            "park"
        ]
    },
    {
        "name": "Basketbol Sahası",
        "description": "No description available",
        "location": "Türkiye/İstanbul",
        "coordinates": {
            "latitude": 40.9223646,
            "longitude": 29.1269515
        },
        "tags": [
            "sports_centre"
        ]
    },
    {
        "name": "Sahil Parkı",
        "description": "No description available",
        "location": "Türkiye/İstanbul",
        "coordinates": {
            "latitude": 40.9218166,
            "longitude": 29.1273738
        },
        "tags": [
            "park"
        ]
    },
    {
        "name": "Azerbaycan Dostluk Parkı",
        "description": "No description available",
        "location": "Türkiye/İstanbul",
        "coordinates": {
            "latitude": 41.0520272,
            "longitude": 29.0021261
        },
        "tags": [
            "park"
        ]
    },
    {
        "name": "Anadolu Parkı",
        "description": "No description available",
        "location": "Türkiye/İstanbul",
        "coordinates": {
            "latitude": 41.0972289,
            "longitude": 28.995081
        },
        "tags": [
            "park"
        ]
    },
    {
        "name": "Unknown Place",
        "description": "No description available",
        "location": "Türkiye/İstanbul",
        "coordinates": {
            "latitude": 41.2377558,
            "longitude": 29.0968965
        },
        "tags": [
            "swimming_pool"
        ]
    },
    {
        "name": "3 Mayıs Çocuk Parkı",
        "description": "No description available",
        "location": "Türkiye/İstanbul",
        "coordinates": {
            "latitude": 40.9805686,
            "longitude": 29.11166
        },
        "tags": [
            "park"
        ]
    },
    {
        "name": "Türk Bahçesi",
        "description": "No description available",
        "location": "Türkiye/İstanbul",
        "coordinates": {
            "latitude": 40.9931609,
            "longitude": 28.9207973
        },
        "tags": [
            "park"
        ]
    },
    {
        "name": "Fetih Parkı",
        "description": "No description available",
        "location": "Türkiye/İstanbul",
        "coordinates": {
            "latitude": 41.0847112,
            "longitude": 28.9112959
        },
        "tags": [
            "park"
        ]
    },
    {
        "name": "Cumhuriyet Parkı",
        "description": "No description available",
        "location": "Türkiye/İstanbul",
        "coordinates": {
            "latitude": 40.993938,
            "longitude": 29.1090113
        },
        "tags": [
            "park"
        ]
    },
    {
        "name": "Unknown Place",
        "description": "No description available",
        "location": "Türkiye/İstanbul",
        "coordinates": {
            "latitude": 41.0501766,
            "longitude": 29.0762857
        },
        "tags": [
            "park"
        ]
    },
    {
        "name": "Unknown Place",
        "description": "No description available",
        "location": "Türkiye/İstanbul",
        "coordinates": {
            "latitude": 41.0516702,
            "longitude": 29.0742337
        },
        "tags": [
            "park"
        ]
    },
    {
        "name": "Yunus Emre Sitesi Parkı",
        "description": "No description available",
        "location": "Türkiye/İstanbul",
        "coordinates": {
            "latitude": 40.9885886,
            "longitude": 28.8509568
        },
        "tags": [
            "park"
        ]
    },
    {
        "name": "Aydın Demir Park",
        "description": "No description available",
        "location": "Türkiye/İstanbul",
        "coordinates": {
            "latitude": 41.0202105,
            "longitude": 29.0423492
        },
        "tags": [
            "park"
        ]
    },
    {
        "name": "Barış Manço Parkı",
        "description": "No description available",
        "location": "Türkiye/İstanbul",
        "coordinates": {
            "latitude": 41.0195026,
            "longitude": 29.0448419
        },
        "tags": [
            "park"
        ]
    },
    {
        "name": "Unknown Place",
        "description": "No description available",
        "location": "Türkiye/İstanbul",
        "coordinates": {
            "latitude": 41.0506575,
            "longitude": 28.7597481
        },
        "tags": [
            "swimming_pool"
        ]
    },
    {
        "name": "Atatürk Parkı",
        "description": "No description available",
        "location": "Türkiye/İstanbul",
        "coordinates": {
            "latitude": 41.0222162,
            "longitude": 28.7723561
        },
        "tags": [
            "park"
        ]
    },
    {
        "name": "Prof. Dr. Kriton Curi Parkı",
        "description": "No description available",
        "location": "Türkiye/İstanbul",
        "coordinates": {
            "latitude": 40.9765574,
            "longitude": 29.0937067
        },
        "tags": [
            "park"
        ]
    },
    {
        "name": "Zübeyde Hanım Parkı",
        "description": "No description available",
        "location": "Türkiye/İstanbul",
        "coordinates": {
            "latitude": 40.9717042,
            "longitude": 29.0904102
        },
        "tags": [
            "park"
        ]
    },
    {
        "name": "Unknown Place",
        "description": "No description available",
        "location": "Türkiye/İstanbul",
        "coordinates": {
            "latitude": 40.791443,
            "longitude": 29.2750912
        },
        "tags": [
            "swimming_pool"
        ]
    },
    {
        "name": "Cumhuriyet Parkı",
        "description": "No description available",
        "location": "Türkiye/İstanbul",
        "coordinates": {
            "latitude": 41.0168183,
            "longitude": 28.6439718
        },
        "tags": [
            "park"
        ]
    },
    {
        "name": "Unknown Place",
        "description": "No description available",
        "location": "Türkiye/İstanbul",
        "coordinates": {
            "latitude": 41.0556488,
            "longitude": 28.9372844
        },
        "tags": [
            "park"
        ]
    },
    {
        "name": "Bahçeşehir Atatürk Parkı",
        "description": "No description available",
        "location": "Türkiye/İstanbul",
        "coordinates": {
            "latitude": 41.0620431,
            "longitude": 28.685329
        },
        "tags": [
            "park"
        ]
    },
    {
        "name": "Üçtepe Parkı",
        "description": "No description available",
        "location": "Türkiye/İstanbul",
        "coordinates": {
            "latitude": 41.0795116,
            "longitude": 28.9551486
        },
        "tags": [
            "park"
        ]
    },
    {
        "name": "Çoban Çeşme Parkı",
        "description": "No description available",
        "location": "İstanbul",
        "coordinates": {
            "latitude": 41.0810866,
            "longitude": 28.9510686
        },
        "tags": [
            "park"
        ]
    },
    {
        "name": "Çobançeşme Çocuk Köyü",
        "description": "No description available",
        "location": "Türkiye/İstanbul",
        "coordinates": {
            "latitude": 41.0844663,
            "longitude": 28.9530477
        },
        "tags": [
            "park"
        ]
    },
    {
        "name": "Alibeyköy Merkez Parkı",
        "description": "No description available",
        "location": "Türkiye/İstanbul",
        "coordinates": {
            "latitude": 41.0805196,
            "longitude": 28.948443
        },
        "tags": [
            "park"
        ]
    },
    {
        "name": "Yeşilyurt Spor Kulübü",
        "description": "No description available",
        "location": "Türkiye/İstanbul",
        "coordinates": {
            "latitude": 40.9627359,
            "longitude": 28.8420751
        },
        "tags": [
            "sports_centre"
        ]
    },
    {
        "name": "Arkeoloji Parkı",
        "description": "No description available",
        "location": "Türkiye/İstanbul",
        "coordinates": {
            "latitude": 41.0143178,
            "longitude": 28.953145
        },
        "tags": [
            "park"
        ]
    },
    {
        "name": "Unknown Place",
        "description": "No description available",
        "location": "Türkiye/İstanbul",
        "coordinates": {
            "latitude": 41.2306428,
            "longitude": 29.0039862
        },
        "tags": [
            "swimming_pool"
        ]
    },
    {
        "name": "Unknown Place",
        "description": "No description available",
        "location": "Türkiye/İstanbul",
        "coordinates": {
            "latitude": 41.0690017,
            "longitude": 28.6827552
        },
        "tags": [
            "park"
        ]
    },
    {
        "name": "Unknown Place",
        "description": "No description available",
        "location": "Türkiye/İstanbul",
        "coordinates": {
            "latitude": 41.0671239,
            "longitude": 28.694871
        },
        "tags": [
            "track"
        ]
    },
    {
        "name": "Şelale Parkı",
        "description": "No description available",
        "location": "Türkiye/İstanbul",
        "coordinates": {
            "latitude": 41.0703319,
            "longitude": 28.6813747
        },
        "tags": [
            "park"
        ]
    },
    {
        "name": "Unknown Place",
        "description": "No description available",
        "location": "Türkiye/İstanbul",
        "coordinates": {
            "latitude": 41.201536,
            "longitude": 29.0458525
        },
        "tags": [
            "swimming_pool"
        ]
    },
    {
        "name": "Unknown Place",
        "description": "No description available",
        "location": "Türkiye/İstanbul",
        "coordinates": {
            "latitude": 41.2068613,
            "longitude": 29.0451872
        },
        "tags": [
            "swimming_pool"
        ]
    },
    {
        "name": "Unknown Place",
        "description": "No description available",
        "location": "Türkiye/İstanbul",
        "coordinates": {
            "latitude": 41.2042509,
            "longitude": 29.0467573
        },
        "tags": [
            "swimming_pool"
        ]
    },
    {
        "name": "Unknown Place",
        "description": "No description available",
        "location": "Türkiye/İstanbul",
        "coordinates": {
            "latitude": 41.2061928,
            "longitude": 29.0445102
        },
        "tags": [
            "swimming_pool"
        ]
    },
    {
        "name": "Unknown Place",
        "description": "No description available",
        "location": "Türkiye/İstanbul",
        "coordinates": {
            "latitude": 41.2047579,
            "longitude": 29.0450636
        },
        "tags": [
            "swimming_pool"
        ]
    },
    {
        "name": "Unknown Place",
        "description": "No description available",
        "location": "Türkiye/İstanbul",
        "coordinates": {
            "latitude": 41.204852,
            "longitude": 29.0489868
        },
        "tags": [
            "swimming_pool"
        ]
    },
    {
        "name": "Unknown Place",
        "description": "No description available",
        "location": "Türkiye/İstanbul",
        "coordinates": {
            "latitude": 41.2095947,
            "longitude": 29.0237652
        },
        "tags": [
            "swimming_pool"
        ]
    },
    {
        "name": "Unknown Place",
        "description": "No description available",
        "location": "Türkiye/İstanbul",
        "coordinates": {
            "latitude": 41.0860195,
            "longitude": 29.005235
        },
        "tags": [
            "park"
        ]
    },
    {
        "name": "Binbirdirek Sarnıcı",
        "description": "No description available",
        "location": "Türkiye/İstanbul",
        "coordinates": {
            "latitude": 41.0074877,
            "longitude": 28.973754
        },
        "tags": [
            "park"
        ]
    },
    {
        "name": "Mecidiye Parkı",
        "description": "No description available",
        "location": "Türkiye/İstanbul",
        "coordinates": {
            "latitude": 41.0265163,
            "longitude": 29.1895644
        },
        "tags": [
            "park"
        ]
    },
    {
        "name": "Çekmeköy Spor Kompleksi",
        "description": "No description available",
        "location": "Türkiye/İstanbul",
        "coordinates": {
            "latitude": 41.0234262,
            "longitude": 29.1853079
        },
        "tags": [
            "sports_centre"
        ]
    },
    {
        "name": "Barış Manço Parkı",
        "description": "No description available",
        "location": "Türkiye/İstanbul",
        "coordinates": {
            "latitude": 40.9664715,
            "longitude": 29.0988605
        },
        "tags": [
            "park"
        ]
    },
    {
        "name": "Ihlamur Parkı",
        "description": "No description available",
        "location": "Türkiye/İstanbul",
        "coordinates": {
            "latitude": 41.0172632,
            "longitude": 28.6493517
        },
        "tags": [
            "park"
        ]
    },
    {
        "name": "Şehitler Parkı",
        "description": "No description available",
        "location": "Türkiye/İstanbul",
        "coordinates": {
            "latitude": 41.0172475,
            "longitude": 28.6715048
        },
        "tags": [
            "park"
        ]
    },
    {
        "name": "Gaziler Parkı",
        "description": "No description available",
        "location": "Türkiye/İstanbul",
        "coordinates": {
            "latitude": 41.022547,
            "longitude": 28.6679093
        },
        "tags": [
            "park"
        ]
    },
    {
        "name": "Gaziler Parkı II.Kısım",
        "description": "No description available",
        "location": "Türkiye/İstanbul",
        "coordinates": {
            "latitude": 41.0258889,
            "longitude": 28.6655589
        },
        "tags": [
            "park"
        ]
    },
    {
        "name": "Hakan Şükür Stadyumu",
        "description": "No description available",
        "location": "Türkiye/İstanbul",
        "coordinates": {
            "latitude": 41.0232371,
            "longitude": 28.6670849
        },
        "tags": [
            "sports_centre"
        ]
    },
    {
        "name": "Beylikdüzü Belediye Çamlığı",
        "description": "No description available",
        "location": "Türkiye/İstanbul",
        "coordinates": {
            "latitude": 41.010357,
            "longitude": 28.6505383
        },
        "tags": [
            "park"
        ]
    },
    {
        "name": "Yunus Balta Parkı",
        "description": "No description available",
        "location": "Türkiye/İstanbul",
        "coordinates": {
            "latitude": 41.0152993,
            "longitude": 28.6517869
        },
        "tags": [
            "park"
        ]
    },
    {
        "name": "Yürüyüş Parkı",
        "description": "No description available",
        "location": "Türkiye/İstanbul",
        "coordinates": {
            "latitude": 41.0171,
            "longitude": 28.6550152
        },
        "tags": [
            "park"
        ]
    },
    {
        "name": "Beykent Üniversitesi Spor Kompleksi",
        "description": "No description available",
        "location": "Türkiye/İstanbul",
        "coordinates": {
            "latitude": 41.0182809,
            "longitude": 28.6252885
        },
        "tags": [
            "sports_centre"
        ]
    },
    {
        "name": "Unknown Place",
        "description": "No description available",
        "location": "Türkiye/İstanbul",
        "coordinates": {
            "latitude": 41.012842,
            "longitude": 28.6501478
        },
        "tags": [
            "park"
        ]
    },
    {
        "name": "Unknown Place",
        "description": "No description available",
        "location": "Türkiye/İstanbul",
        "coordinates": {
            "latitude": 41.0117886,
            "longitude": 28.6500805
        },
        "tags": [
            "park"
        ]
    },
    {
        "name": "Unknown Place",
        "description": "No description available",
        "location": "Türkiye/İstanbul",
        "coordinates": {
            "latitude": 41.0111836,
            "longitude": 28.6540196
        },
        "tags": [
            "park"
        ]
    },
    {
        "name": "Unknown Place",
        "description": "No description available",
        "location": "Türkiye/İstanbul",
        "coordinates": {
            "latitude": 41.0146864,
            "longitude": 28.6737969
        },
        "tags": [
            "park"
        ]
    },
    {
        "name": "Sezen Aksu Parkı",
        "description": "No description available",
        "location": "Türkiye/İstanbul",
        "coordinates": {
            "latitude": 41.0016489,
            "longitude": 28.6429427
        },
        "tags": [
            "park"
        ]
    },
    {
        "name": "Kuğulu Park",
        "description": "No description available",
        "location": "Türkiye/İstanbul",
        "coordinates": {
            "latitude": 41.0056237,
            "longitude": 28.6431009
        },
        "tags": [
            "park"
        ]
    },
    {
        "name": "Atrium Parkı",
        "description": "No description available",
        "location": "Türkiye/İstanbul",
        "coordinates": {
            "latitude": 41.0068247,
            "longitude": 28.6453647
        },
        "tags": [
            "park"
        ]
    },
    {
        "name": "Barış Manço Parkı",
        "description": "No description available",
        "location": "Türkiye/İstanbul",
        "coordinates": {
            "latitude": 41.0119447,
            "longitude": 28.6448095
        },
        "tags": [
            "park"
        ]
    },
    {
        "name": "Mehmehçik Parkı",
        "description": "No description available",
        "location": "Türkiye/İstanbul",
        "coordinates": {
            "latitude": 41.0095734,
            "longitude": 28.6440289
        },
        "tags": [
            "park"
        ]
    },
    {
        "name": "Fatih Sultan Mehmet Koruluğu",
        "description": "No description available",
        "location": "Türkiye/İstanbul",
        "coordinates": {
            "latitude": 41.0092954,
            "longitude": 28.6422507
        },
        "tags": [
            "park"
        ]
    },
    {
        "name": "Mehmet Akif Ersoy Koruluğu",
        "description": "No description available",
        "location": "Türkiye/İstanbul",
        "coordinates": {
            "latitude": 41.0088063,
            "longitude": 28.645329
        },
        "tags": [
            "park"
        ]
    },
    {
        "name": "B-10 Parkı",
        "description": "No description available",
        "location": "Türkiye/İstanbul",
        "coordinates": {
            "latitude": 41.0081974,
            "longitude": 28.6469713
        },
        "tags": [
            "park"
        ]
    },
    {
        "name": "Mehmet Akif Ersoy Koruluğu",
        "description": "No description available",
        "location": "Türkiye/İstanbul",
        "coordinates": {
            "latitude": 41.0086659,
            "longitude": 28.6483251
        },
        "tags": [
            "park"
        ]
    },
    {
        "name": "Turgut Özal Koruluğu",
        "description": "No description available",
        "location": "Türkiye/İstanbul",
        "coordinates": {
            "latitude": 41.0078003,
            "longitude": 28.6526783
        },
        "tags": [
            "park"
        ]
    },
    {
        "name": "Enver Adakan Parkı",
        "description": "No description available",
        "location": "Türkiye/İstanbul",
        "coordinates": {
            "latitude": 41.0024543,
            "longitude": 28.6500464
        },
        "tags": [
            "park"
        ]
    },
    {
        "name": "Barış Parkı",
        "description": "No description available",
        "location": "Türkiye/İstanbul",
        "coordinates": {
            "latitude": 41.0007684,
            "longitude": 28.6527908
        },
        "tags": [
            "park"
        ]
    },
    {
        "name": "Enver Adakan Parkı",
        "description": "No description available",
        "location": "Türkiye/İstanbul",
        "coordinates": {
            "latitude": 40.9991483,
            "longitude": 28.6547488
        },
        "tags": [
            "park"
        ]
    },
    {
        "name": "Cumhuriyet Parkı",
        "description": "No description available",
        "location": "Türkiye/İstanbul",
        "coordinates": {
            "latitude": 41.0042442,
            "longitude": 28.640259
        },
        "tags": [
            "park"
        ]
    },
    {
        "name": "Bizimkent Atatürk Koruluğu",
        "description": "No description available",
        "location": "Türkiye/İstanbul",
        "coordinates": {
            "latitude": 41.0107972,
            "longitude": 28.6390679
        },
        "tags": [
            "park"
        ]
    },
    {
        "name": "Şener Şen Parkı",
        "description": "No description available",
        "location": "Türkiye/İstanbul",
        "coordinates": {
            "latitude": 40.9976184,
            "longitude": 28.6494695
        },
        "tags": [
            "park"
        ]
    },
    {
        "name": "Vali Recep Yazıcıoğlu Koruluğu",
        "description": "No description available",
        "location": "Türkiye/İstanbul",
        "coordinates": {
            "latitude": 41.0059294,
            "longitude": 28.6576382
        },
        "tags": [
            "park"
        ]
    },
    {
        "name": "Eray Altın Korluğu 2",
        "description": "No description available",
        "location": "Türkiye/İstanbul",
        "coordinates": {
            "latitude": 41.0067802,
            "longitude": 28.6554381
        },
        "tags": [
            "park"
        ]
    },
    {
        "name": "Eray Altın Korluğu 1",
        "description": "No description available",
        "location": "Türkiye/İstanbul",
        "coordinates": {
            "latitude": 41.0071547,
            "longitude": 28.654374
        },
        "tags": [
            "park"
        ]
    },
    {
        "name": "Şirinler Parkı",
        "description": "No description available",
        "location": "Türkiye/İstanbul",
        "coordinates": {
            "latitude": 41.0060434,
            "longitude": 28.6536384
        },
        "tags": [
            "park"
        ]
    },
    {
        "name": "Unknown Place",
        "description": "No description available",
        "location": "Türkiye/İstanbul",
        "coordinates": {
            "latitude": 41.0087572,
            "longitude": 28.650504
        },
        "tags": [
            "park"
        ]
    },
    {
        "name": "Mevlana Parkı",
        "description": "No description available",
        "location": "Türkiye/İstanbul",
        "coordinates": {
            "latitude": 41.0064234,
            "longitude": 28.6278607
        },
        "tags": [
            "park"
        ]
    },
    {
        "name": "Unknown Place",
        "description": "No description available",
        "location": "Türkiye/İstanbul",
        "coordinates": {
            "latitude": 41.0140591,
            "longitude": 28.6481544
        },
        "tags": [
            "park"
        ]
    },
    {
        "name": "Regnum Astrum Towers Sosyal Tesis",
        "description": "No description available",
        "location": "Türkiye/İstanbul",
        "coordinates": {
            "latitude": 41.0141899,
            "longitude": 28.6767242
        },
        "tags": [
            "sports_centre"
        ]
    },
    {
        "name": "Solarkent Sosyal Tesis",
        "description": "No description available",
        "location": "Türkiye/İstanbul",
        "coordinates": {
            "latitude": 41.0161479,
            "longitude": 28.677107
        },
        "tags": [
            "sports_centre"
        ]
    },
    {
        "name": "Innovia 1 Havuz ve Sosyal Tesis",
        "description": "No description available",
        "location": "Türkiye/İstanbul",
        "coordinates": {
            "latitude": 41.0175577,
            "longitude": 28.6561926
        },
        "tags": [
            "swimming_pool"
        ]
    },
    {
        "name": "Unknown Place",
        "description": "No description available",
        "location": "Türkiye/İstanbul",
        "coordinates": {
            "latitude": 41.0232892,
            "longitude": 28.6614074
        },
        "tags": [
            "park"
        ]
    },
    {
        "name": "Unknown Place",
        "description": "No description available",
        "location": "Türkiye/İstanbul",
        "coordinates": {
            "latitude": 41.0218023,
            "longitude": 28.6612995
        },
        "tags": [
            "park"
        ]
    },
    {
        "name": "Unknown Place",
        "description": "No description available",
        "location": "Türkiye/İstanbul",
        "coordinates": {
            "latitude": 41.0146852,
            "longitude": 28.6484907
        },
        "tags": [
            "park"
        ]
    },
    {
        "name": "Unknown Place",
        "description": "No description available",
        "location": "Türkiye/İstanbul",
        "coordinates": {
            "latitude": 41.0138796,
            "longitude": 28.6559747
        },
        "tags": [
            "park"
        ]
    },
    {
        "name": "Unknown Place",
        "description": "No description available",
        "location": "Türkiye/İstanbul",
        "coordinates": {
            "latitude": 41.0148743,
            "longitude": 28.6530603
        },
        "tags": [
            "park"
        ]
    },
    {
        "name": "Unknown Place",
        "description": "No description available",
        "location": "Türkiye/İstanbul",
        "coordinates": {
            "latitude": 41.0088018,
            "longitude": 28.6664698
        },
        "tags": [
            "park"
        ]
    },
    {
        "name": "Unknown Place",
        "description": "No description available",
        "location": "Türkiye/İstanbul",
        "coordinates": {
            "latitude": 41.0139333,
            "longitude": 28.6520505
        },
        "tags": [
            "park"
        ]
    },
    {
        "name": "Unknown Place",
        "description": "No description available",
        "location": "Türkiye/İstanbul",
        "coordinates": {
            "latitude": 41.0156606,
            "longitude": 28.6504957
        },
        "tags": [
            "park"
        ]
    },
    {
        "name": "Unknown Place",
        "description": "No description available",
        "location": "Türkiye/İstanbul",
        "coordinates": {
            "latitude": 41.0117867,
            "longitude": 28.6652745
        },
        "tags": [
            "park"
        ]
    },
    {
        "name": "Unknown Place",
        "description": "No description available",
        "location": "Türkiye/İstanbul",
        "coordinates": {
            "latitude": 41.0138187,
            "longitude": 28.6995292
        },
        "tags": [
            "sports_centre"
        ]
    },
    {
        "name": "Recep Tayyip Erdoğan Parkı",
        "description": "No description available",
        "location": "Türkiye/İstanbul",
        "coordinates": {
            "latitude": 41.0170548,
            "longitude": 28.6893447
        },
        "tags": [
            "park"
        ]
    },
    {
        "name": "Unknown Place",
        "description": "No description available",
        "location": "Türkiye/İstanbul",
        "coordinates": {
            "latitude": 41.0153692,
            "longitude": 28.6907489
        },
        "tags": [
            "sports_centre"
        ]
    },
    {
        "name": "Unknown Place",
        "description": "No description available",
        "location": "Türkiye/İstanbul",
        "coordinates": {
            "latitude": 41.0152207,
            "longitude": 28.6912512
        },
        "tags": [
            "sports_centre"
        ]
    },
    {
        "name": "Abdullah Gül Parkı",
        "description": "No description available",
        "location": "Türkiye/İstanbul",
        "coordinates": {
            "latitude": 41.0366762,
            "longitude": 28.6408437
        },
        "tags": [
            "park"
        ]
    },
    {
        "name": "19 Mayıs Gençlik Parkı",
        "description": "No description available",
        "location": "Türkiye/İstanbul",
        "coordinates": {
            "latitude": 41.0353685,
            "longitude": 28.6595624
        },
        "tags": [
            "park"
        ]
    },
    {
        "name": "Unknown Place",
        "description": "No description available",
        "location": "Türkiye/İstanbul",
        "coordinates": {
            "latitude": 40.9968018,
            "longitude": 28.5982997
        },
        "tags": [
            "sports_centre"
        ]
    },
    {
        "name": "Gürpınar Sahil Parkı (Piri Reis Parkı)",
        "description": "No description available",
        "location": "Türkiye/İstanbul",
        "coordinates": {
            "latitude": 41.0007328,
            "longitude": 28.5983829
        },
        "tags": [
            "park"
        ]
    },
    {
        "name": "Unknown Place",
        "description": "No description available",
        "location": "Türkiye/İstanbul",
        "coordinates": {
            "latitude": 40.985021,
            "longitude": 28.5981094
        },
        "tags": [
            "park"
        ]
    },
    {
        "name": "World Point Spor Merkezi ",
        "description": "No description available",
        "location": "Türkiye/İstanbul",
        "coordinates": {
            "latitude": 41.0119591,
            "longitude": 28.6217244
        },
        "tags": [
            "sports_centre"
        ]
    },
    {
        "name": "Çamlık Parkı",
        "description": "No description available",
        "location": "Türkiye/İstanbul",
        "coordinates": {
            "latitude": 40.9974558,
            "longitude": 28.6349048
        },
        "tags": [
            "park"
        ]
    },
    {
        "name": "Kemal Sunal Parkı",
        "description": "No description available",
        "location": "Türkiye/İstanbul",
        "coordinates": {
            "latitude": 40.9895825,
            "longitude": 28.6253181
        },
        "tags": [
            "park"
        ]
    },
    {
        "name": "Kıvırcık Ali Parkı",
        "description": "No description available",
        "location": "Türkiye/İstanbul",
        "coordinates": {
            "latitude": 40.9902487,
            "longitude": 28.6296284
        },
        "tags": [
            "park"
        ]
    },
    {
        "name": "Atakent Parkı",
        "description": "No description available",
        "location": "Türkiye/İstanbul",
        "coordinates": {
            "latitude": 40.9903697,
            "longitude": 28.6252799
        },
        "tags": [
            "park"
        ]
    },
    {
        "name": "Sami Aksu Parkı",
        "description": "No description available",
        "location": "Türkiye/İstanbul",
        "coordinates": {
            "latitude": 40.9922981,
            "longitude": 28.6197564
        },
        "tags": [
            "park"
        ]
    },
    {
        "name": "Şehit Nail Sarıgan Parkı",
        "description": "No description available",
        "location": "Türkiye/İstanbul",
        "coordinates": {
            "latitude": 40.9931359,
            "longitude": 28.6195862
        },
        "tags": [
            "park"
        ]
    },
    {
        "name": "Atatürk Parkı",
        "description": "No description available",
        "location": "Türkiye/İstanbul",
        "coordinates": {
            "latitude": 40.9918642,
            "longitude": 28.6137783
        },
        "tags": [
            "park"
        ]
    },
    {
        "name": "Nazım Hikmet Yıldızhan Parkı",
        "description": "No description available",
        "location": "Türkiye/İstanbul",
        "coordinates": {
            "latitude": 40.9904102,
            "longitude": 28.615026
        },
        "tags": [
            "park"
        ]
    },
    {
        "name": "Çambaşı Caddesi Üzeri Parkı",
        "description": "No description available",
        "location": "Türkiye/İstanbul",
        "coordinates": {
            "latitude": 41.005901,
            "longitude": 28.6244183
        },
        "tags": [
            "park"
        ]
    },
    {
        "name": "Yaşar Acar Parkı",
        "description": "No description available",
        "location": "Türkiye/İstanbul",
        "coordinates": {
            "latitude": 40.9935208,
            "longitude": 28.6488974
        },
        "tags": [
            "park"
        ]
    },
    {
        "name": "Nigar Şahin Parkı",
        "description": "No description available",
        "location": "Türkiye/İstanbul",
        "coordinates": {
            "latitude": 40.9947755,
            "longitude": 28.6506063
        },
        "tags": [
            "park"
        ]
    },
    {
        "name": "Unknown Place",
        "description": "No description available",
        "location": "Türkiye/İstanbul",
        "coordinates": {
            "latitude": 41.0130444,
            "longitude": 28.672336
        },
        "tags": [
            "park"
        ]
    },
    {
        "name": "Unknown Place",
        "description": "No description available",
        "location": "Türkiye/İstanbul",
        "coordinates": {
            "latitude": 41.0286626,
            "longitude": 28.6847873
        },
        "tags": [
            "park"
        ]
    },
    {
        "name": "Unknown Place",
        "description": "No description available",
        "location": "Türkiye/İstanbul",
        "coordinates": {
            "latitude": 41.0281734,
            "longitude": 28.6839194
        },
        "tags": [
            "park"
        ]
    },
    {
        "name": "Unknown Place",
        "description": "No description available",
        "location": "Türkiye/İstanbul",
        "coordinates": {
            "latitude": 41.0283309,
            "longitude": 28.6841661
        },
        "tags": [
            "park"
        ]
    },
    {
        "name": "Unknown Place",
        "description": "No description available",
        "location": "Türkiye/İstanbul",
        "coordinates": {
            "latitude": 41.0285405,
            "longitude": 28.6843115
        },
        "tags": [
            "park"
        ]
    },
    {
        "name": "Unknown Place",
        "description": "No description available",
        "location": "Türkiye/İstanbul",
        "coordinates": {
            "latitude": 41.0287285,
            "longitude": 28.6842103
        },
        "tags": [
            "park"
        ]
    },
    {
        "name": "Unknown Place",
        "description": "No description available",
        "location": "Türkiye/İstanbul",
        "coordinates": {
            "latitude": 41.0279591,
            "longitude": 28.684539
        },
        "tags": [
            "park"
        ]
    },
    {
        "name": "Unknown Place",
        "description": "No description available",
        "location": "Türkiye/İstanbul",
        "coordinates": {
            "latitude": 41.0146609,
            "longitude": 28.6417792
        },
        "tags": [
            "park"
        ]
    },
    {
        "name": "Yakuplu Kent Ormanı",
        "description": "No description available",
        "location": "Türkiye/İstanbul",
        "coordinates": {
            "latitude": 41.0043814,
            "longitude": 28.6688762
        },
        "tags": [
            "park"
        ]
    },
    {
        "name": "Sultan Süleyman Parkı",
        "description": "No description available",
        "location": "Türkiye/İstanbul",
        "coordinates": {
            "latitude": 41.001547,
            "longitude": 28.6721491
        },
        "tags": [
            "park"
        ]
    },
    {
        "name": "Karabekir Parkı",
        "description": "No description available",
        "location": "Türkiye/İstanbul",
        "coordinates": {
            "latitude": 41.0017008,
            "longitude": 28.6708079
        },
        "tags": [
            "park"
        ]
    },
    {
        "name": "Millî Egemenlik Parkı",
        "description": "No description available",
        "location": "Türkiye/İstanbul",
        "coordinates": {
            "latitude": 41.0002537,
            "longitude": 28.673949
        },
        "tags": [
            "park"
        ]
    },
    {
        "name": "Dostluk Parkı",
        "description": "No description available",
        "location": "Türkiye/İstanbul",
        "coordinates": {
            "latitude": 41.005229,
            "longitude": 28.6660739
        },
        "tags": [
            "park"
        ]
    },
    {
        "name": "şehit binbaşı ümit çelik parkı",
        "description": "No description available",
        "location": "Türkiye/İstanbul",
        "coordinates": {
            "latitude": 41.0004231,
            "longitude": 28.6298394
        },
        "tags": [
            "park"
        ]
    },
    {
        "name": "75. Yıl Parkı",
        "description": "No description available",
        "location": "Türkiye/İstanbul",
        "coordinates": {
            "latitude": 41.0421205,
            "longitude": 28.6816952
        },
        "tags": [
            "park"
        ]
    },
    {
        "name": "Unknown Place",
        "description": "No description available",
        "location": "Türkiye/İstanbul",
        "coordinates": {
            "latitude": 41.0108451,
            "longitude": 28.6441954
        },
        "tags": [
            "park"
        ]
    },
    {
        "name": "Paşa Eli Kent Parkı",
        "description": "No description available",
        "location": "Türkiye/İstanbul",
        "coordinates": {
            "latitude": 40.985707,
            "longitude": 28.7359112
        },
        "tags": [
            "park"
        ]
    },
    {
        "name": "İBB Sosyal Tesisler Bahçesi",
        "description": "No description available",
        "location": "Türkiye/İstanbul",
        "coordinates": {
            "latitude": 40.9765061,
            "longitude": 28.7444149
        },
        "tags": [
            "park"
        ]
    },
    {
        "name": "Şehit Asteğmen Mustafa Burcu Parkı",
        "description": "No description available",
        "location": "Türkiye/İstanbul",
        "coordinates": {
            "latitude": 40.9718953,
            "longitude": 28.7179628
        },
        "tags": [
            "park"
        ]
    },
    {
        "name": "Unknown Place",
        "description": "No description available",
        "location": "Türkiye/İstanbul",
        "coordinates": {
            "latitude": 40.9839604,
            "longitude": 28.7374626
        },
        "tags": [
            "park"
        ]
    },
    {
        "name": "Kültür Park",
        "description": "No description available",
        "location": "Türkiye/İstanbul",
        "coordinates": {
            "latitude": 41.0227135,
            "longitude": 28.5746499
        },
        "tags": [
            "park"
        ]
    },
    {
        "name": "Unknown Place",
        "description": "No description available",
        "location": "Türkiye/İstanbul",
        "coordinates": {
            "latitude": 40.9864965,
            "longitude": 28.6588695
        },
        "tags": [
            "park"
        ]
    },
    {
        "name": "Unknown Place",
        "description": "No description available",
        "location": "Türkiye/İstanbul",
        "coordinates": {
            "latitude": 40.9863892,
            "longitude": 28.6566674
        },
        "tags": [
            "park"
        ]
    },
    {
        "name": "Unknown Place",
        "description": "No description available",
        "location": "Türkiye/İstanbul",
        "coordinates": {
            "latitude": 40.9876668,
            "longitude": 28.6564153
        },
        "tags": [
            "park"
        ]
    },
    {
        "name": "Unknown Place",
        "description": "No description available",
        "location": "Türkiye/İstanbul",
        "coordinates": {
            "latitude": 40.9864156,
            "longitude": 28.6556321
        },
        "tags": [
            "park"
        ]
    },
    {
        "name": "Unknown Place",
        "description": "No description available",
        "location": "Türkiye/İstanbul",
        "coordinates": {
            "latitude": 40.9878632,
            "longitude": 28.6589339
        },
        "tags": [
            "park"
        ]
    },
    {
        "name": "Unknown Place",
        "description": "No description available",
        "location": "Türkiye/İstanbul",
        "coordinates": {
            "latitude": 40.9848363,
            "longitude": 28.6551975
        },
        "tags": [
            "park"
        ]
    },
    {
        "name": "Unknown Place",
        "description": "No description available",
        "location": "Türkiye/İstanbul",
        "coordinates": {
            "latitude": 40.9837267,
            "longitude": 28.6564529
        },
        "tags": [
            "park"
        ]
    },
    {
        "name": "Unknown Place",
        "description": "No description available",
        "location": "Türkiye/İstanbul",
        "coordinates": {
            "latitude": 40.9829127,
            "longitude": 28.6564019
        },
        "tags": [
            "park"
        ]
    },
    {
        "name": "Unknown Place",
        "description": "No description available",
        "location": "Türkiye/İstanbul",
        "coordinates": {
            "latitude": 40.9833096,
            "longitude": 28.6550311
        },
        "tags": [
            "park"
        ]
    },
    {
        "name": "Unknown Place",
        "description": "No description available",
        "location": "Türkiye/İstanbul",
        "coordinates": {
            "latitude": 40.9840325,
            "longitude": 28.6540039
        },
        "tags": [
            "park"
        ]
    },
    {
        "name": "Unknown Place",
        "description": "No description available",
        "location": "Türkiye/İstanbul",
        "coordinates": {
            "latitude": 41.0029056,
            "longitude": 28.6531596
        },
        "tags": [
            "park"
        ]
    },
    {
        "name": "Osmanlı Parkı",
        "description": "No description available",
        "location": "Türkiye/İstanbul",
        "coordinates": {
            "latitude": 41.0367818,
            "longitude": 28.6733992
        },
        "tags": [
            "park"
        ]
    },
    {
        "name": "Koru Parkı",
        "description": "No description available",
        "location": "Türkiye/İstanbul",
        "coordinates": {
            "latitude": 41.0395986,
            "longitude": 28.6683165
        },
        "tags": [
            "park"
        ]
    },
    {
        "name": "Bilal Yazkurt Parkı",
        "description": "No description available",
        "location": "Türkiye/İstanbul",
        "coordinates": {
            "latitude": 41.0323631,
            "longitude": 28.6697835
        },
        "tags": [
            "park"
        ]
    },
    {
        "name": "Gürpınar Atatürk Parkı",
        "description": "No description available",
        "location": "Türkiye/İstanbul",
        "coordinates": {
            "latitude": 40.9965917,
            "longitude": 28.6070828
        },
        "tags": [
            "park"
        ]
    },
    {
        "name": "Söğütlüçeşme Yaşam Parkı",
        "description": "No description available",
        "location": "Türkiye/İstanbul",
        "coordinates": {
            "latitude": 41.0261021,
            "longitude": 28.786437
        },
        "tags": [
            "park"
        ]
    },
    {
        "name": "Kardeşlik Parkı",
        "description": "No description available",
        "location": "Türkiye/İstanbul",
        "coordinates": {
            "latitude": 41.024329,
            "longitude": 28.7852197
        },
        "tags": [
            "park"
        ]
    },
    {
        "name": "Halkalı Çamlık Parkı",
        "description": "No description available",
        "location": "İstanbul",
        "coordinates": {
            "latitude": 41.0340044,
            "longitude": 28.7897009
        },
        "tags": [
            "park"
        ]
    },
    {
        "name": "Halkalı Çamlık Parkı",
        "description": "No description available",
        "location": "İstanbul",
        "coordinates": {
            "latitude": 41.0313522,
            "longitude": 28.7907534
        },
        "tags": [
            "park"
        ]
    },
    {
        "name": "Bülent Ecevit Parkı",
        "description": "No description available",
        "location": "Türkiye/İstanbul",
        "coordinates": {
            "latitude": 40.9871267,
            "longitude": 29.1021183
        },
        "tags": [
            "park"
        ]
    },
    {
        "name": "Yenilevent Sporcular Parkı",
        "description": "No description available",
        "location": "istanbul",
        "coordinates": {
            "latitude": 41.0876408,
            "longitude": 29.0159556
        },
        "tags": [
            "park"
        ]
    },
    {
        "name": "Spor Parkı",
        "description": "No description available",
        "location": "Türkiye/İstanbul",
        "coordinates": {
            "latitude": 41.0991101,
            "longitude": 28.9076739
        },
        "tags": [
            "park"
        ]
    },
    {
        "name": "Unknown Place",
        "description": "No description available",
        "location": "Türkiye/İstanbul",
        "coordinates": {
            "latitude": 41.0992385,
            "longitude": 28.909801
        },
        "tags": [
            "park"
        ]
    },
    {
        "name": "Unknown Place",
        "description": "No description available",
        "location": "Türkiye/İstanbul",
        "coordinates": {
            "latitude": 41.0985127,
            "longitude": 28.9101482
        },
        "tags": [
            "park"
        ]
    },
    {
        "name": "Gazi Parkı",
        "description": "No description available",
        "location": "Türkiye/İstanbul",
        "coordinates": {
            "latitude": 41.0958273,
            "longitude": 28.8991636
        },
        "tags": [
            "park"
        ]
    },
    {
        "name": "Unknown Place",
        "description": "No description available",
        "location": "Türkiye/İstanbul",
        "coordinates": {
            "latitude": 41.0402979,
            "longitude": 28.7936868
        },
        "tags": [
            "park"
        ]
    },
    {
        "name": "Sadabat Mesire 2",
        "description": "No description available",
        "location": "İstanbul",
        "coordinates": {
            "latitude": 41.0675028,
            "longitude": 28.9571539
        },
        "tags": [
            "park"
        ]
    },
    {
        "name": "Unknown Place",
        "description": "No description available",
        "location": "Türkiye/İstanbul",
        "coordinates": {
            "latitude": 41.0673747,
            "longitude": 28.9611798
        },
        "tags": [
            "playground"
        ]
    },
    {
        "name": "Unknown Place",
        "description": "No description available",
        "location": "Türkiye/İstanbul",
        "coordinates": {
            "latitude": 41.0989579,
            "longitude": 28.9091416
        },
        "tags": [
            "park"
        ]
    },
    {
        "name": "Sancaktepe Meydan Parkı",
        "description": "No description available",
        "location": "Türkiye/İstanbul",
        "coordinates": {
            "latitude": 40.9928158,
            "longitude": 29.2292775
        },
        "tags": [
            "park"
        ]
    },
    {
        "name": "Aşık Veysel Parkı",
        "description": "No description available",
        "location": "Türkiye/İstanbul",
        "coordinates": {
            "latitude": 41.0988689,
            "longitude": 28.8904176
        },
        "tags": [
            "park"
        ]
    },