[
  {
    "name": "Pendik İtfaiye Grup Amirliği",
    "description": "No description available",
    "location": "Türkiye/İstanbul",
    "coordinates": {
      "latitude": 40.8865924,
      "longitude": 29.2367261
    },
    "tags": ["fire_station"]
  },
  {
    "name": "T. C. K. 1. Bölge Müdürlüğü Ispartakule İstasyonu",
    "description": "No description available",
    "location": "Türkiye/İstanbul",
    "coordinates": {
      "latitude": 41.0587903,
      "longitude": 28.7100345
    },
    "tags": ["police"]
  },
  {
    "name": "Maltepe Emniyet Müdürlüğü",
    "description": "No description available",
    "location": "Türkiye/İstanbul",
    "coordinates": {
      "latitude": 40.9244368,
      "longitude": 29.1312419
    },
    "tags": ["police"]
  },
  {
    "name": "Kadıköy İftaiyesi",
    "description": "No description available",
    "location": "Türkiye/İstanbul",
    "coordinates": {
      "latitude": 40.9912524,
      "longitude": 29.0333536
    },
    "tags": ["fire_station"]
  },
  {
    "name": "Çengelköy İtfaiyesi",
    "description": "No description available",
    "location": "Türkiye/İstanbul",
    "coordinates": {
      "latitude": 41.0450589,
      "longitude": 29.0762191
    },
    "tags": ["fire_station"]
  },
  {
    "name": "Kadıköy İskele Polis Merkez Amirliği",
    "description": "No description available",
    "location": "Türkiye/İstanbul",
    "coordinates": {
      "latitude": 40.990523,
      "longitude": 29.0199418
    },
    "tags": ["police"]
  },
  {
    "name": "Parkorman Tabiat Parkı",
    "description": "No description available",
    "location": "Türkiye/İstanbul",
    "coordinates": {
      "latitude": 41.1260961,
      "longitude": 29.0158054
    },
    "tags": ["nature_reserve"]
  },
  {
    "name": "Gazi Karakolu",
    "description": "No description available",
    "location": "Türkiye/İstanbul",
    "coordinates": {
      "latitude": 41.1087483,
      "longitude": 28.8941245
    },
    "tags": ["police"]
  },
  {
    "name": "Beylerbeyi Sabancı Polis Evi",
    "description": "No description available",
    "location": "Türkiye/İstanbul",
    "coordinates": {
      "latitude": 41.0436516,
      "longitude": 29.0432665
    },
    "tags": ["police"]
  },
  {
    "name": "Güneşli Polis Merkez Amirliği",
    "description": "No description available",
    "location": "Istanbul",
    "coordinates": {
      "latitude": 41.0358523,
      "longitude": 28.8233267
    },
    "tags": ["police"]
  },
  {
    "name": "Unknown Place",
    "description": "No description available",
    "location": "İstanbul",
    "coordinates": {
      "latitude": 41.0593439,
      "longitude": 28.6781678
    },
    "tags": ["police"]
  },
  {
    "name": "içerenköy karakolu",
    "description": "No description available",
    "location": "Türkiye/İstanbul",
    "coordinates": {
      "latitude": 40.9728035,
      "longitude": 29.1183347
    },
    "tags": ["police"]
  },
  {
    "name": "Sultangazi İtfaiye İstasyonu",
    "description": "No description available",
    "location": "Türkiye/İstanbul",
    "coordinates": {
      "latitude": 41.1042107,
      "longitude": 28.8895046
    },
    "tags": ["fire_station"]
  },
  {
    "name": "Kadıköy İlçe Milli Emniyet Müdürlüğü Çocuk Büro Amirliği",
    "description": "No description available",
    "location": "Türkiye/İstanbul",
    "coordinates": {
      "latitude": 40.9876667,
      "longitude": 29.033684
    },
    "tags": ["police"]
  },
  {
    "name": "Unknown Place",
    "description": "No description available",
    "location": "Türkiye/İstanbul",
    "coordinates": {
      "latitude": 40.9531995,
      "longitude": 29.0895625
    },
    "tags": ["toilets"]
  },
  {
    "name": "Unknown Place",
    "description": "No description available",
    "location": "Türkiye/İstanbul",
    "coordinates": {
      "latitude": 40.9633965,
      "longitude": 29.0641118
    },
    "tags": ["toilets"]
  },
  {
    "name": "Değirmenburnu Tabiat Parkı",
    "description": "No description available",
    "location": "Türkiye/İstanbul",
    "coordinates": {
      "latitude": 40.8824989,
      "longitude": 29.0946595
    },
    "tags": ["nature_reserve"]
  },
  {
    "name": "Kadıköy İskele Zabıta",
    "description": "No description available",
    "location": "Türkiye/İstanbul",
    "coordinates": {
      "latitude": 40.991052,
      "longitude": 29.0212873
    },
    "tags": ["police"]
  },
  {
    "name": "Kadıköy İlçe Emniyet Müdürlüğü",
    "description": "No description available",
    "location": "Türkiye/İstanbul",
    "coordinates": {
      "latitude": 40.9808732,
      "longitude": 29.0763837
    },
    "tags": ["police"]
  },
  {
    "name": "Binkılıç İtfaiye İstasyonu",
    "description": "No description available",
    "location": "Türkiye/İstanbul",
    "coordinates": {
      "latitude": 41.4126487,
      "longitude": 28.1812035
    },
    "tags": ["fire_station"]
  },
  {
    "name": "Sefaköy İtfaiye Müfreze Amirliği",
    "description": "No description available",
    "location": "Türkiye/İstanbul",
    "coordinates": {
      "latitude": 41.0221941,
      "longitude": 28.7929923
    },
    "tags": ["fire_station"]
  },
  {
    "name": "Türkmenbaşı Tabiat Parkı",
    "description": "No description available",
    "location": "Türkiye/İstanbul",
    "coordinates": {
      "latitude": 41.1399923,
      "longitude": 29.0257192
    },
    "tags": ["nature_reserve"]
  },
  {
    "name": "Burhaniye Fırını",
    "description": "No description available",
    "location": "Türkiye/İstanbul",
    "coordinates": {
      "latitude": 41.0344798,
      "longitude": 29.0541438
    },
    "tags": []
  },
  {
    "name": "Kısıklı Emniyet Müdürlüğü",
    "description": "No description available",
    "location": "Türkiye/İstanbul",
    "coordinates": {
      "latitude": 41.0232102,
      "longitude": 29.0580626
    },
    "tags": ["police"]
  },
  {
    "name": "Beylikdüzü İlçe Emniyet Müdürlüğü",
    "description": "No description available",
    "location": "Türkiye/İstanbul",
    "coordinates": {
      "latitude": 40.9822146,
      "longitude": 28.6584318
    },
    "tags": ["police"]
  },
  {
    "name": "Karaköy Polis Merkezi",
    "description": "No description available",
    "location": "Türkiye/İstanbul",
    "coordinates": {
      "latitude": 41.0245386,
      "longitude": 28.9798344
    },
    "tags": ["police"]
  },
  {
    "name": "Unknown Place",
    "description": "No description available",
    "location": "Türkiye/İstanbul",
    "coordinates": {
      "latitude": 40.9988198,
      "longitude": 28.8029553
    },
    "tags": ["fire_station"]
  },
  {
    "name": "T.C. Küçükçekmece İtfaiye İstasyonu",
    "description": "No description available",
    "location": "Türkiye/İstanbul",
    "coordinates": {
      "latitude": 40.9953734,
      "longitude": 28.7799946
    },
    "tags": ["fire_station"]
  },
  {
    "name": "Karayolları Denetim İstasyonu",
    "description": "No description available",
    "location": "Türkiye/İstanbul",
    "coordinates": {
      "latitude": 41.0636437,
      "longitude": 28.7986317
    },
    "tags": ["police"]
  },
  {
    "name": "Karayolları Denetim İstasyonu",
    "description": "No description available",
    "location": "Türkiye/İstanbul",
    "coordinates": {
      "latitude": 41.0618023,
      "longitude": 28.8019816
    },
    "tags": ["police"]
  },
  {
    "name": "Beykoz İlçe Emniyet Müdürlüğü",
    "description": "No description available",
    "location": "Türkiye/İstanbul",
    "coordinates": {
      "latitude": 41.0931951,
      "longitude": 29.1016672
    },
    "tags": ["police"]
  },
  {
    "name": "Unknown Place",
    "description": "No description available",
    "location": "Türkiye/İstanbul",
    "coordinates": {
      "latitude": 41.0934017,
      "longitude": 29.0991579
    },
    "tags": ["fire_station"]
  },
  {
    "name": "Şile Polis Karakolu",
    "description": "No description available",
    "location": "Türkiye/İstanbul",
    "coordinates": {
      "latitude": 41.1740801,
      "longitude": 29.6158603
    },
    "tags": ["police"]
  },
  {
    "name": "Zabıta Daire Başkanlığı",
    "description": "No description available",
    "location": "Türkiye/İstanbul",
    "coordinates": {
      "latitude": 41.0131037,
      "longitude": 28.9568882
    },
    "tags": ["police"]
  },
  {
    "name": "T.C. Fatih kaymakamlığı ilçe emniyet müdürlüğü Fatih Şehit Tevfik Fikret Erciyas Polis Merkez Amirliği",
    "description": "No description available",
    "location": "Türkiye/İstanbul",
    "coordinates": {
      "latitude": 41.0220731,
      "longitude": 28.9454239
    },
    "tags": ["police"]
  },
  {
    "name": "Şht. Hayrettin Yıldırım Polis Amirliği",
    "description": "No description available",
    "location": "Türkiye/İstanbul",
    "coordinates": {
      "latitude": 40.9981447,
      "longitude": 29.0788454
    },
    "tags": ["police"]
  },
  {
    "name": "Şimşek Fırın",
    "description": "No description available",
    "location": "Türkiye/İstanbul",
    "coordinates": {
      "latitude": 40.9688116,
      "longitude": 29.115598
    },
    "tags": []
  },
  {
    "name": "Ataşehir İlçe Emniyet Müdürlüğü",
    "description": "No description available",
    "location": "Türkiye/İstanbul",
    "coordinates": {
      "latitude": 40.9948916,
      "longitude": 29.1063911
    },
    "tags": ["police"]
  },
  {
    "name": "İlçe Emniyet Müdürlüğü",
    "description": "No description available",
    "location": "Çatalca/İstanbul",
    "coordinates": {
      "latitude": 41.1358975,
      "longitude": 28.4652937
    },
    "tags": ["police"]
  },
  {
    "name": "Ş. Salih Sevgican Polis Merkezi Amirliği",
    "description": "No description available",
    "location": "İstanbul",
    "coordinates": {
      "latitude": 40.9924625,
      "longitude": 29.1542593
    },
    "tags": ["police"]
  },
  {
    "name": "MİMAROBA POLİS MERKEZİ AMİRLİĞİ",
    "description": "No description available",
    "location": "Türkiye/İstanbul",
    "coordinates": {
      "latitude": 41.0126599,
      "longitude": 28.5420651
    },
    "tags": ["police"]
  },
  {
    "name": "Gaziosmanpaşa İtfaiye İstasyonu",
    "description": "No description available",
    "location": "Türkiye/İstanbul",
    "coordinates": {
      "latitude": 41.079395,
      "longitude": 28.8933561
    },
    "tags": ["fire_station"]
  },
  {
    "name": "Unknown Place",
    "description": "No description available",
    "location": "Türkiye/İstanbul",
    "coordinates": {
      "latitude": 40.9387383,
      "longitude": 29.1417305
    },
    "tags": ["police"]
  },
  {
    "name": "SAFRANBOLU FIRINI",
    "description": "No description available",
    "location": "Türkiye/İstanbul",
    "coordinates": {
      "latitude": 40.9328548,
      "longitude": 29.1309411
    },
    "tags": []
  },
  {
    "name": "Çinili Polis Karakolu",
    "description": "No description available",
    "location": "Türkiye/İstanbul",
    "coordinates": {
      "latitude": 41.0234763,
      "longitude": 29.0296561
    },
    "tags": ["police"]
  },
  {
    "name": "Erenköy İtfaiye İstasyonu",
    "description": "No description available",
    "location": "Türkiye/İstanbul",
    "coordinates": {
      "latitude": 40.9764586,
      "longitude": 29.0684761
    },
    "tags": ["fire_station"]
  },
  {
    "name": "Unknown Place",
    "description": "No description available",
    "location": "Türkiye/İstanbul",
    "coordinates": {
      "latitude": 40.9007869,
      "longitude": 29.3039598
    },
    "tags": ["fire_station"]
  },
  {
    "name": "Yenimahalle Polis Karakolu",
    "description": "No description available",
    "location": "Türkiye/İstanbul",
    "coordinates": {
      "latitude": 40.9810794,
      "longitude": 28.8802134
    },
    "tags": ["police"]
  },
  {
    "name": "Mimarsinan İtfaiye İstasyonu",
    "description": "No description available",
    "location": "Türkiye/İstanbul",
    "coordinates": {
      "latitude": 41.012774,
      "longitude": 28.5449274
    },
    "tags": ["fire_station"]
  },
  {
    "name": "Bakırköy İtfaiye Grup Amirliği",
    "description": "No description available",
    "location": "Türkiye/İstanbul",
    "coordinates": {
      "latitude": 40.9874804,
      "longitude": 28.8816446
    },
    "tags": ["fire_station"]
  },
  {
    "name": "Ataköy Polis Merkezi Amirliği",
    "description": "No description available",
    "location": "Türkiye/İstanbul",
    "coordinates": {
      "latitude": 40.9803778,
      "longitude": 28.8622659
    },
    "tags": ["police"]
  },
  {
    "name": "Polonezkoy Country Club",
    "description": "No description available",
    "location": "İstanbul",
    "coordinates": {
      "latitude": 41.1176631,
      "longitude": 29.2225827
    },
    "tags": ["golf_course"]
  },
  {
    "name": "Saklikent Country",
    "description": "No description available",
    "location": "Türkiye/İstanbul",
    "coordinates": {
      "latitude": 41.1359654,
      "longitude": 29.2980796
    },
    "tags": ["golf_course"]
  },
  {
    "name": "Unknown Place",
    "description": "No description available",
    "location": "Türkiye/İstanbul",
    "coordinates": {
      "latitude": 40.9694259,
      "longitude": 29.0517551
    },
    "tags": ["golf_course"]
  },
  {
    "name": "Unknown Place",
    "description": "No description available",
    "location": "Türkiye/İstanbul",
    "coordinates": {
      "latitude": 40.9798675,
      "longitude": 29.0279611
    },
    "tags": ["toilets"]
  },
  {
    "name": "Ahmet Yesevi Mahallesi Polis Karakolu",
    "description": "No description available",
    "location": "Türkiye/İstanbul",
    "coordinates": {
      "latitude": 40.9723328,
      "longitude": 29.264209
    },
    "tags": ["police"]
  },
  {
    "name": "Alemdağ Polis Merkezi",
    "description": "No description available",
    "location": "Türkiye/İstanbul",
    "coordinates": {
      "latitude": 41.0491292,
      "longitude": 29.2404695
    },
    "tags": ["police"]
  },
  {
    "name": "Gayrettepe Asayiş Şube Müdürlüğü",
    "description": "No description available",
    "location": "Beşiktaş/İstanbul",
    "coordinates": {
      "latitude": 41.0637303,
      "longitude": 29.0027111
    },
    "tags": ["police"]
  },
  {
    "name": "Turgut Reis İtfaiye İstasyonu",
    "description": "No description available",
    "location": "Türkiye/İstanbul",
    "coordinates": {
      "latitude": 41.0645073,
      "longitude": 28.8671998
    },
    "tags": ["fire_station"]
  },
  {
    "name": "Şenlikköy Polis Karakolu",
    "description": "No description available",
    "location": "İstanbul",
    "coordinates": {
      "latitude": 40.9810239,
      "longitude": 28.7938759
    },
    "tags": ["police"]
  },
  {
    "name": "Unknown Place",
    "description": "No description available",
    "location": "Türkiye/İstanbul",
    "coordinates": {
      "latitude": 41.0554582,
      "longitude": 28.7796485
    },
    "tags": ["toilets"]
  },
  {
    "name": "İstanbul Emniyet Müdürlüğü",
    "description": "No description available",
    "location": "Türkiye/İstanbul",
    "coordinates": {
      "latitude": 41.0194238,
      "longitude": 28.9378763
    },
    "tags": ["police"]
  },
  {
    "name": "Bayrampaşa Zabıta Müdürlüğü",
    "description": "No description available",
    "location": "İstanbul",
    "coordinates": {
      "latitude": 41.0448734,
      "longitude": 28.894677
    },
    "tags": ["police"]
  },
  {
    "name": "Unknown Place",
    "description": "No description available",
    "location": "Türkiye/İstanbul",
    "coordinates": {
      "latitude": 41.0284521,
      "longitude": 28.9562288
    },
    "tags": ["toilets"]
  },
  {
    "name": "Yenişehir İtfaiye İstasyonu",
    "description": "No description available",
    "location": "Türkiye/İstanbul",
    "coordinates": {
      "latitude": 40.9405484,
      "longitude": 29.3052172
    },
    "tags": ["fire_station"]
  },
  {
    "name": "Kalyon Fırın",
    "description": "No description available",
    "location": "Türkiye/İstanbul",
    "coordinates": {
      "latitude": 41.0141987,
      "longitude": 29.1968728
    },
    "tags": []
  },
  {
    "name": "İstanbul Halk Ekmek",
    "description": "No description available",
    "location": "İstanbul",
    "coordinates": {
      "latitude": 41.031933,
      "longitude": 29.1818539
    },
    "tags": []
  },
  {
    "name": "Kayaşehir Polis Merkezi Amirliği",
    "description": "No description available",
    "location": "Türkiye/İstanbul",
    "coordinates": {
      "latitude": 41.1040302,
      "longitude": 28.7629859
    },
    "tags": ["police"]
  },
  {
    "name": "Çamlık",
    "description": "No description available",
    "location": "Türkiye/İstanbul",
    "coordinates": {
      "latitude": 41.0132919,
      "longitude": 29.1967153
    },
    "tags": []
  },
  {
    "name": "Ugurmumcu İtfaiye",
    "description": "No description available",
    "location": "Türkiye/İstanbul",
    "coordinates": {
      "latitude": 40.9435609,
      "longitude": 29.2148725
    },
    "tags": ["fire_station"]
  },
  {
    "name": "Kanarya Polis Merkezi",
    "description": "No description available",
    "location": "Türkiye/İstanbul",
    "coordinates": {
      "latitude": 41.0111282,
      "longitude": 28.7859053
    },
    "tags": ["police"]
  },
  {
    "name": "T.C. İstanbul Emniyet Müdürlüğü Eğitim Ve Kongre Merkezi",
    "description": "No description available",
    "location": "Türkiye/İstanbul",
    "coordinates": {
      "latitude": 41.0123888,
      "longitude": 28.902284
    },
    "tags": ["police"]
  },
  {
    "name": "Unknown Place",
    "description": "No description available",
    "location": "Türkiye/İstanbul",
    "coordinates": {
      "latitude": 41.0413152,
      "longitude": 29.117944
    },
    "tags": ["toilets"]
  },
  {
    "name": "Unknown Place",
    "description": "No description available",
    "location": "Türkiye/İstanbul",
    "coordinates": {
      "latitude": 41.0406646,
      "longitude": 29.1190463
    },
    "tags": ["toilets"]
  },
  {
    "name": "Haliç Polis Merkezi Amirliği",
    "description": "No description available",
    "location": "Camiikebir Mahallesi",
    "coordinates": {
      "latitude": 41.0388329,
      "longitude": 28.955196
    },
    "tags": ["police"]
  },
  {
    "name": "Kazanoğulları Pastaneleri",
    "description": "No description available",
    "location": "Ümraniye/İstanbul",
    "coordinates": {
      "latitude": 41.0256262,
      "longitude": 29.1013854
    },
    "tags": []
  },
  {
    "name": "Unknown Place",
    "description": "No description available",
    "location": "Türkiye/İstanbul",
    "coordinates": {
      "latitude": 40.98584,
      "longitude": 29.2275731
    },
    "tags": ["police"]
  },
  {
    "name": "Sancaktepe İlçe Emniyet Müdürlüğü",
    "description": "No description available",
    "location": "Türkiye/İstanbul",
    "coordinates": {
      "latitude": 40.9868213,
      "longitude": 29.2231898
    },
    "tags": ["police"]
  },
  {
    "name": "Unknown Place",
    "description": "No description available",
    "location": "Türkiye/İstanbul",
    "coordinates": {
      "latitude": 41.1109714,
      "longitude": 29.055596
    },
    "tags": ["toilets"]
  },
  {
    "name": "İstanbul Halk Ekmek",
    "description": "No description available",
    "location": "Türkiye/İstanbul",
    "coordinates": {
      "latitude": 40.9853787,
      "longitude": 28.6577025
    },
    "tags": []
  },
  {
    "name": "Unknown Place",
    "description": "No description available",
    "location": "Türkiye/İstanbul",
    "coordinates": {
      "latitude": 40.8859576,
      "longitude": 29.3518155
    },
    "tags": ["fire_station"]
  },
  {
    "name": "Kanberoğlu",
    "description": "No description available",
    "location": "Türkiye/İstanbul",
    "coordinates": {
      "latitude": 41.0075837,
      "longitude": 29.1176652
    },
    "tags": []
  },
  {
    "name": "Yakacık Polis Merkezi",
    "description": "No description available",
    "location": "Türkiye/İstanbul",
    "coordinates": {
      "latitude": 40.9166848,
      "longitude": 29.2225155
    },
    "tags": ["police"]
  },
  {
    "name": "SG Fırından",
    "description": "No description available",
    "location": "Türkiye/İstanbul",
    "coordinates": {
      "latitude": 41.0229085,
      "longitude": 28.6358348
    },
    "tags": []
  },
  {
    "name": "Acıbadem Polis Merkezi",
    "description": "No description available",
    "location": "İSTANBUL",
    "coordinates": {
      "latitude": 41.0086141,
      "longitude": 29.0368322
    },
    "tags": ["police"]
  },
  {
    "name": "Unknown Place",
    "description": "No description available",
    "location": "Türkiye/İstanbul",
    "coordinates": {
      "latitude": 40.9936354,
      "longitude": 29.0245147
    },
    "tags": ["toilets"]
  },
  {
    "name": "İBB Davutpaşa İtfaiye İstasyonu",
    "description": "No description available",
    "location": "Türkiye/İstanbul",
    "coordinates": {
      "latitude": 41.0263186,
      "longitude": 28.8948344
    },
    "tags": ["fire_station"]
  },
  {
    "name": "Yenişehir Polis Karakolu",
    "description": "No description available",
    "location": "İstanbul",
    "coordinates": {
      "latitude": 40.9248594,
      "longitude": 29.3013064
    },
    "tags": ["police"]
  },
  {
    "name": "Şehit Adil Gözalıcı Polis Merkezi",
    "description": "No description available",
    "location": "İstanbul",
    "coordinates": {
      "latitude": 40.8770155,
      "longitude": 29.2365973
    },
    "tags": ["police"]
  },
  {
    "name": "Şehit Ali Kaya Erdem Polis Merkezi Amirliği",
    "description": "No description available",
    "location": "Türkiye/İstanbul",
    "coordinates": {
      "latitude": 40.8901627,
      "longitude": 29.2190432
    },
    "tags": ["police"]
  },
  {
    "name": "Çamçeşme Polis Merkezi Amirliği",
    "description": "No description available",
    "location": "Türkiye/İstanbul",
    "coordinates": {
      "latitude": 40.878471,
      "longitude": 29.2709085
    },
    "tags": ["police"]
  },
  {
    "name": "Unknown Place",
    "description": "No description available",
    "location": "Türkiye/İstanbul",
    "coordinates": {
      "latitude": 41.0691711,
      "longitude": 29.6632026
    },
    "tags": ["fire_station"]
  },
  {
    "name": "Unknown Place",
    "description": "No description available",
    "location": "Türkiye/İstanbul",
    "coordinates": {
      "latitude": 40.9786511,
      "longitude": 28.8504204
    },
    "tags": ["golf_course"]
  },
  {
    "name": "Unknown Place",
    "description": "No description available",
    "location": "Türkiye/İstanbul",
    "coordinates": {
      "latitude": 40.9931322,
      "longitude": 29.0271148
    },
    "tags": []
  },
  {
    "name": "Çakmak Polis Merkezi Amirliği",
    "description": "No description available",
    "location": "İstanbul",
    "coordinates": {
      "latitude": 41.0066055,
      "longitude": 29.1108231
    },
    "tags": ["police"]
  },
  {
    "name": "Unknown Place",
    "description": "No description available",
    "location": "Türkiye/İstanbul",
    "coordinates": {
      "latitude": 41.1735786,
      "longitude": 28.9004272
    },
    "tags": ["golf_course"]
  },
  {
    "name": "Çamlıköy Tabiat Parkı",
    "description": "No description available",
    "location": "Türkiye/İstanbul",
    "coordinates": {
      "latitude": 41.5861465,
      "longitude": 28.1455864
    },
    "tags": ["nature_reserve"]
  },
  {
    "name": "Danamandıra Tabiat Parkı",
    "description": "No description available",
    "location": "Türkiye/İstanbul",
    "coordinates": {
      "latitude": 41.3037256,
      "longitude": 28.2164633
    },
    "tags": ["nature_reserve"]
  },
  {
    "name": "Unknown Place",
    "description": "No description available",
    "location": "Türkiye/İstanbul",
    "coordinates": {
      "latitude": 40.9998518,
      "longitude": 28.538628
    },
    "tags": ["toilets"]
  },
  {
    "name": "Pendik İlçe Emniyet Müdürlüğü",
    "description": "No description available",
    "location": "Türkiye/İstanbul",
    "coordinates": {
      "latitude": 40.8803154,
      "longitude": 29.2447365
    },
    "tags": ["police"]
  },
  {
    "name": "İstanbul Kelebek Çiftliği",
    "description": "No description available",
    "location": "İstanbul",
    "coordinates": {
      "latitude": 41.124256,
      "longitude": 29.1569399
    },
    "tags": ["nature_reserve"]
  },
  {
    "name": "İBB Merter İtfaiye Müdürlüğü",
    "description": "No description available",
    "location": "Türkiye/İstanbul",
    "coordinates": {
      "latitude": 41.0169304,
      "longitude": 28.8883953
    },
    "tags": ["fire_station"]
  },
  {
    "name": "Florya İtfaiye İstasyonu",
    "description": "No description available",
    "location": "Türkiye/İstanbul",
    "coordinates": {
      "latitude": 40.9631163,
      "longitude": 28.8079524
    },
    "tags": ["fire_station"]
  },
  {
    "name": "Unknown Place",
    "description": "No description available",
    "location": "Türkiye/İstanbul",
    "coordinates": {
      "latitude": 41.0228877,
      "longitude": 29.0590417
    },
    "tags": ["police"]
  },
  {
    "name": "Unknown Place",
    "description": "No description available",
    "location": "Türkiye/İstanbul",
    "coordinates": {
      "latitude": 40.9696568,
      "longitude": 29.0572095
    },
    "tags": ["toilets"]
  },
  {
    "name": "Unknown Place",
    "description": "No description available",
    "location": "Türkiye/İstanbul",
    "coordinates": {
      "latitude": 41.2632188,
      "longitude": 28.7371171
    },
    "tags": ["toilets"]
  },
  {
    "name": "Kartal İtfaiye Bölge Grup Amirliğĭ",
    "description": "No description available",
    "location": "Türkiye/İstanbul",
    "coordinates": {
      "latitude": 40.891727,
      "longitude": 29.1956015
    },
    "tags": ["fire_station"]
  },
  {
    "name": "Unknown Place",
    "description": "No description available",
    "location": "Türkiye/İstanbul",
    "coordinates": {
      "latitude": 41.0155562,
      "longitude": 29.2446264
    },
    "tags": ["fire_station"]
  },
  {
    "name": "Kağıthane İtfaiye Müfreze Amirliği",
    "description": "No description available",
    "location": "Türkiye/İstanbul",
    "coordinates": {
      "latitude": 41.0862764,
      "longitude": 28.9649305
    },
    "tags": ["fire_station"]
  },
  {
    "name": "Andolu Yakası İtfaiye Müdürlüğü",
    "description": "No description available",
    "location": "Türkiye/İstanbul",
    "coordinates": {
      "latitude": 41.0198483,
      "longitude": 29.0116906
    },
    "tags": ["fire_station"]
  },
  {
    "name": "Unknown Place",
    "description": "No description available",
    "location": "Türkiye/İstanbul",
    "coordinates": {
      "latitude": 41.1340452,
      "longitude": 29.0917493
    },
    "tags": ["toilets"]
  },
  {
    "name": "Çekmeköy İlçe Emniyet Müdürlüğü",
    "description": "No description available",
    "location": "Türkiye/İstanbul",
    "coordinates": {
      "latitude": 41.0314021,
      "longitude": 29.2329624
    },
    "tags": ["police"]
  },
  {
    "name": "Unknown Place",
    "description": "No description available",
    "location": "Türkiye/İstanbul",
    "coordinates": {
      "latitude": 41.3748249,
      "longitude": 28.2051717
    },
    "tags": ["toilets"]
  },
  {
    "name": "Aqua Peynir & Şarküteri",
    "description": "No description available",
    "location": "İstanbul",
    "coordinates": {
      "latitude": 41.0579324,
      "longitude": 28.6729951
    },
    "tags": []
  },
  {
    "name": "Haliç Polis Merkezi Amirliği",
    "description": "No description available",
    "location": "Camiikebir Mahallesi",
    "coordinates": {
      "latitude": 41.0388617,
      "longitude": 28.9552714
    },
    "tags": ["police"]
  },
  {
    "name": "Silivri İtfaiye İstasyonu",
    "description": "No description available",
    "location": "Türkiye/İstanbul",
    "coordinates": {
      "latitude": 41.0762019,
      "longitude": 28.2554572
    },
    "tags": ["fire_station"]
  },
  {
    "name": "C Bölgesi Trafik Amirliği",
    "description": "No description available",
    "location": "İstanbul",
    "coordinates": {
      "latitude": 40.9804237,
      "longitude": 29.0564036
    },
    "tags": ["police"]
  },
  {
    "name": "Alibeyköy İtfaiye İstasyonu",
    "description": "No description available",
    "location": "Türkiye/İstanbul",
    "coordinates": {
      "latitude": 41.07987,
      "longitude": 28.9372174
    },
    "tags": ["fire_station"]
  },
  {
    "name": "Asmalı Büfe",
    "description": "No description available",
    "location": "istanbul",
    "coordinates": {
      "latitude": 41.0546513,
      "longitude": 28.7270798
    },
    "tags": []
  },
  {
    "name": "Silivri Bölge Trafik Denetleme İstasyon Amirliği",
    "description": "No description available",
    "location": "Türkiye/İstanbul",
    "coordinates": {
      "latitude": 41.07837,
      "longitude": 28.2390434
    },
    "tags": ["police"]
  },
  {
    "name": "Beşiktaş İlçe Emniyet Müdürlüğü Çocuk Büro Amirliği",
    "description": "No description available",
    "location": "İstanbul",
    "coordinates": {
      "latitude": 41.0783325,
      "longitude": 29.0444331
    },
    "tags": ["police"]
  },
  {
    "name": "Çinili Fırın",
    "description": "No description available",
    "location": "Türkiye/İstanbul",
    "coordinates": {
      "latitude": 40.9050125,
      "longitude": 29.2470334
    },
    "tags": []
  },
  {
    "name": "Taşdelen Emniyet Müdürlüğü",
    "description": "No description available",
    "location": "Türkiye/İstanbul",
    "coordinates": {
      "latitude": 41.0332405,
      "longitude": 29.2351976
    },
    "tags": ["police"]
  },
  {
    "name": "Gurme Bahçeşehir",
    "description": "No description available",
    "location": "Türkiye/İstanbul",
    "coordinates": {
      "latitude": 41.0670019,
      "longitude": 28.6918794
    },
    "tags": []
  },
  {
    "name": "Avcılar İtfaiye İstasyonu",
    "description": "No description available",
    "location": "istanbul",
    "coordinates": {
      "latitude": 40.9935457,
      "longitude": 28.712981
    },
    "tags": ["fire_station"]
  },
  {
    "name": "Şile İlçe Emniyet",
    "description": "No description available",
    "location": "Türkiye/İstanbul",
    "coordinates": {
      "latitude": 41.1778709,
      "longitude": 29.6120182
    },
    "tags": ["police"]
  },
  {
    "name": "Beylikdüzü İtfaiye İstasyonu",
    "description": "No description available",
    "location": "Türkiye/İstanbul",
    "coordinates": {
      "latitude": 40.9982797,
      "longitude": 28.6435333
    },
    "tags": ["fire_station"]
  },
  {
    "name": "Unknown Place",
    "description": "No description available",
    "location": "Türkiye/İstanbul",
    "coordinates": {
      "latitude": 40.9335736,
      "longitude": 29.1712111
    },
    "tags": ["water_point"]
  },
  {
    "name": "Unknown Place",
    "description": "No description available",
    "location": "Türkiye/İstanbul",
    "coordinates": {
      "latitude": 41.0360584,
      "longitude": 28.9773371
    },
    "tags": ["police"]
  },
  {
    "name": "Ataşehir Golf Club",
    "description": "No description available",
    "location": "İstanbul",
    "coordinates": {
      "latitude": 40.9915602,
      "longitude": 29.1404579
    },
    "tags": ["golf_course"]
  },
  {
    "name": "Unknown Place",
    "description": "No description available",
    "location": "Türkiye/İstanbul",
    "coordinates": {
      "latitude": 40.9792755,
      "longitude": 29.1471044
    },
    "tags": ["fire_station"]
  },
  {
    "name": "Unknown Place",
    "description": "No description available",
    "location": "Türkiye/İstanbul",
    "coordinates": {
      "latitude": 40.9920023,
      "longitude": 28.9183043
    },
    "tags": ["toilets"]
  },
  {
    "name": "İstanbul Halk Ekmek",
    "description": "No description available",
    "location": "Türkiye/İstanbul",
    "coordinates": {
      "latitude": 40.9989502,
      "longitude": 29.0383426
    },
    "tags": []
  },
  {
    "name": "Unknown Place",
    "description": "No description available",
    "location": "Türkiye/İstanbul",
    "coordinates": {
      "latitude": 40.9951449,
      "longitude": 29.0415496
    },
    "tags": ["police"]
  },
  {
    "name": "Unknown Place",
    "description": "No description available",
    "location": "Türkiye/İstanbul",
    "coordinates": {
      "latitude": 41.0459362,
      "longitude": 29.0166891
    },
    "tags": ["police"]
  },
  {
    "name": "Ünalan İtfaiye İstasyonu",
    "description": "No description available",
    "location": "Türkiye/İstanbul",
    "coordinates": {
      "latitude": 41.0017822,
      "longitude": 29.0722787
    },
    "tags": ["fire_station"]
  },
  {
    "name": "Unknown Place",
    "description": "No description available",
    "location": "Türkiye/İstanbul",
    "coordinates": {
      "latitude": 41.1132896,
      "longitude": 28.8072091
    },
    "tags": ["toilets"]
  },
  {
    "name": "Unknown Place",
    "description": "No description available",
    "location": "Türkiye/İstanbul",
    "coordinates": {
      "latitude": 41.1040327,
      "longitude": 28.8007071
    },
    "tags": ["fire_station"]
  },
  {
    "name": "Unknown Place",
    "description": "No description available",
    "location": "Türkiye/İstanbul",
    "coordinates": {
      "latitude": 41.1043833,
      "longitude": 28.8005493
    },
    "tags": ["fire_station"]
  },
  {
    "name": "Beşiktaş İlçe Emniyet Müdürlüğü",
    "description": "No description available",
    "location": "Türkiye/İstanbul",
    "coordinates": {
      "latitude": 41.0454176,
      "longitude": 29.0164506
    },
    "tags": ["police"]
  },
  {
    "name": "Unknown Place",
    "description": "No description available",
    "location": "Türkiye/İstanbul",
    "coordinates": {
      "latitude": 40.9716211,
      "longitude": 28.7378002
    },
    "tags": ["toilets"]
  },
  {
    "name": "İstanbul Halk Ekmek",
    "description": "No description available",
    "location": "Türkiye/İstanbul",
    "coordinates": {
      "latitude": 40.9216809,
      "longitude": 29.2910397
    },
    "tags": []
  },
  {
    "name": "İtfaiye Binası",
    "description": "No description available",
    "location": "Türkiye/İstanbul",
    "coordinates": {
      "latitude": 41.0843239,
      "longitude": 28.7970547
    },
    "tags": ["fire_station"]
  },
  {
    "name": "Ekinciler Unlu Mamulleri",
    "description": "No description available",
    "location": "Türkiye/İstanbul",
    "coordinates": {
      "latitude": 40.9676252,
      "longitude": 29.0638291
    },
    "tags": []
  },
  {
    "name": "Unknown Place",
    "description": "No description available",
    "location": "Türkiye/İstanbul",
    "coordinates": {
      "latitude": 41.041543,
      "longitude": 28.9499417
    },
    "tags": ["toilets"]
  },
  {
    "name": "Unknown Place",
    "description": "No description available",
    "location": "Türkiye/İstanbul",
    "coordinates": {
      "latitude": 41.1085937,
      "longitude": 29.008517
    },
    "tags": []
  },
  {
    "name": "Üsküdar İlçe emniyet müdürlüğü",
    "description": "No description available",
    "location": "Türkiye/İstanbul",
    "coordinates": {
      "latitude": 41.0238987,
      "longitude": 29.0270783
    },
    "tags": ["police"]
  },
  {
    "name": "silivri ilçe emniyet müdürlüğü",
    "description": "No description available",
    "location": "Türkiye/İstanbul",
    "coordinates": {
      "latitude": 41.0721013,
      "longitude": 28.2692618
    },
    "tags": ["police"]
  },
  {
    "name": "Silivri İlçe Emniyet Müdürlüğü Police department",
    "description": "No description available",
    "location": "Türkiye/İstanbul",
    "coordinates": {
      "latitude": 41.072027,
      "longitude": 28.2699449
    },
    "tags": ["police"]
  },
  {
    "name": "Unknown Place",
    "description": "No description available",
    "location": "Türkiye/İstanbul",
    "coordinates": {
      "latitude": 40.9930509,
      "longitude": 28.835244
    },
    "tags": ["toilets"]
  },
  {
    "name": "Bizim Bahçe Şarküteri",
    "description": "No description available",
    "location": "İstanbul",
    "coordinates": {
      "latitude": 40.9723447,
      "longitude": 29.0763099
    },
    "tags": []
  },
  {
    "name": "T.C.K. 1. Bölge Müdürlüğü Avcılar İstasyonu",
    "description": "No description available",
    "location": "Türkiye/İstanbul",
    "coordinates": {
      "latitude": 41.0499988,
      "longitude": 28.6862495
    },
    "tags": ["police"]
  },
  {
    "name": "T. C. K. 1. Bölge Müdürlüğü Esenyurt İstasyonu",
    "description": "No description available",
    "location": "Türkiye/İstanbul",
    "coordinates": {
      "latitude": 41.0546016,
      "longitude": 28.6766644
    },
    "tags": ["police"]
  },
  {
    "name": "T. C. K. 1. Bölge Müdürlüğü Esenyurt İstasyonu",
    "description": "No description available",
    "location": "Türkiye/İstanbul",
    "coordinates": {
      "latitude": 41.0531538,
      "longitude": 28.6742033
    },
    "tags": ["police"]
  },
  {
    "name": "T. C. K. 1. Bölge Müdürlüğü Hadımköy İstasyonu",
    "description": "No description available",
    "location": "Türkiye/İstanbul",
    "coordinates": {
      "latitude": 41.0862407,
      "longitude": 28.6317805
    },
    "tags": ["police"]
  },
  {
    "name": "Unknown Place",
    "description": "No description available",
    "location": "Türkiye/İstanbul",
    "coordinates": {
      "latitude": 41.09342,
      "longitude": 29.0986965
    },
    "tags": ["fire_station"]
  },
  {
    "name": "Gündoğdu Ekmek & Pasta",
    "description": "No description available",
    "location": "İstanbul",
    "coordinates": {
      "latitude": 41.0516679,
      "longitude": 28.9180871
    },
    "tags": []
  },
  {
    "name": "Yavuz Sultan Selim itfaiye istasyonu",
    "description": "No description available",
    "location": "Türkiye/İstanbul",
    "coordinates": {
      "latitude": 41.2253974,
      "longitude": 29.0342256
    },
    "tags": ["fire_station"]
  },
  {
    "name": "Unknown Place",
    "description": "No description available",
    "location": "Türkiye/İstanbul",
    "coordinates": {
      "latitude": 41.0358364,
      "longitude": 28.8232579
    },
    "tags": ["police"]
  },
  {
    "name": "Unknown Place",
    "description": "No description available",
    "location": "Türkiye/İstanbul",
    "coordinates": {
      "latitude": 41.0257558,
      "longitude": 28.7847085
    },
    "tags": ["toilets"]
  },
  {
    "name": "Unknown Place",
    "description": "No description available",
    "location": "Türkiye/İstanbul",
    "coordinates": {
      "latitude": 41.0247349,
      "longitude": 28.7810476
    },
    "tags": ["toilets"]
  },
  {
    "name": "Unknown Place",
    "description": "No description available",
    "location": "Türkiye/İstanbul",
    "coordinates": {
      "latitude": 40.9442126,
      "longitude": 29.1058476
    },
    "tags": ["toilets"]
  },
  {
    "name": "ARFF 3",
    "description": "No description available",
    "location": "Türkiye/İstanbul",
    "coordinates": {
      "latitude": 41.2753573,
      "longitude": 28.7523038
    },
    "tags": ["fire_station"]
  },
  {
    "name": "ARFF 2",
    "description": "No description available",
    "location": "Türkiye/İstanbul",
    "coordinates": {
      "latitude": 41.2838718,
      "longitude": 28.713252
    },
    "tags": ["fire_station"]
  },
  {
    "name": "Unknown Place",
    "description": "No description available",
    "location": "Türkiye/İstanbul",
    "coordinates": {
      "latitude": 41.0906346,
      "longitude": 29.0687868
    },
    "tags": ["toilets"]
  },
  {
    "name": "Unknown Place",
    "description": "No description available",
    "location": "Türkiye/İstanbul",
    "coordinates": {
      "latitude": 40.8880945,
      "longitude": 29.187671
    },
    "tags": ["toilets"]
  },
  {
    "name": "Unknown Place",
    "description": "No description available",
    "location": "Türkiye/İstanbul",
    "coordinates": {
      "latitude": 41.1069399,
      "longitude": 29.0304457
    },
    "tags": ["toilets"]
  },
  {
    "name": "Sabanci Simit",
    "description": "No description available",
    "location": "Türkiye/İstanbul",
    "coordinates": {
      "latitude": 40.8917452,
      "longitude": 29.3794797
    },
    "tags": []
  },
  {
    "name": "İstanbul Halk Ekmek",
    "description": "No description available",
    "location": "Türkiye/İstanbul",
    "coordinates": {
      "latitude": 41.0012384,
      "longitude": 28.7835484
    },
    "tags": []
  },
  {
    "name": "Eyüpsultan İtfaiye İstasyonu",
    "description": "No description available",
    "location": "İstanbul",
    "coordinates": {
      "latitude": 41.0481445,
      "longitude": 28.9194332
    },
    "tags": ["fire_station"]
  },
  {
    "name": "Eyüpsultan İlçe Emniyet Müdürlüğü Trafik Tescil Büro Amirliği",
    "description": "No description available",
    "location": "İstanbul",
    "coordinates": {
      "latitude": 41.048232,
      "longitude": 28.919722
    },
    "tags": ["police"]
  },
  {
    "name": "Unknown Place",
    "description": "No description available",
    "location": "Türkiye/İstanbul",
    "coordinates": {
      "latitude": 41.0401666,
      "longitude": 29.1160415
    },
    "tags": ["toilets"]
  },
  {
    "name": "Unknown Place",
    "description": "No description available",
    "location": "Türkiye/İstanbul",
    "coordinates": {
      "latitude": 41.0232801,
      "longitude": 29.0583844
    },
    "tags": ["police"]
  },
  {
    "name": "Unknown Place",
    "description": "No description available",
    "location": "Türkiye/İstanbul",
    "coordinates": {
      "latitude": 41.0231374,
      "longitude": 29.0587472
    },
    "tags": ["police"]
  },
  {
    "name": "Unknown Place",
    "description": "No description available",
    "location": "Türkiye/İstanbul",
    "coordinates": {
      "latitude": 41.0233941,
      "longitude": 29.057846
    },
    "tags": ["police"]
  },
  {
    "name": "Unknown Place",
    "description": "No description available",
    "location": "Türkiye/İstanbul",
    "coordinates": {
      "latitude": 41.0233108,
      "longitude": 29.0576842
    },
    "tags": ["police"]
  },
  {
    "name": "Unknown Place",
    "description": "No description available",
    "location": "Türkiye/İstanbul",
    "coordinates": {
      "latitude": 40.9682868,
      "longitude": 29.1165209
    },
    "tags": ["toilets"]
  },
  {
    "name": "Bahçeşehir Jandarma Karakolu Komutanlığı",
    "description": "No description available",
    "location": "Türkiye/İstanbul",
    "coordinates": {
      "latitude": 41.0667427,
      "longitude": 28.6824256
    },
    "tags": ["police"]
  },
  {
    "name": "İstanbul Halk Ekmek",
    "description": "No description available",
    "location": "Gaziosmanpaşa",
    "coordinates": {
      "latitude": 41.0578411,
      "longitude": 28.9121506
    },
    "tags": []
  },
  {
    "name": "İstanbul Halk Ekmek",
    "description": "No description available",
    "location": "İstanbul",
    "coordinates": {
      "latitude": 41.0338335,
      "longitude": 28.9373973
    },
    "tags": []
  },
  {
    "name": "Unknown Place",
    "description": "No description available",
    "location": "Türkiye/İstanbul",
    "coordinates": {
      "latitude": 41.1174497,
      "longitude": 28.7786275
    },
    "tags": ["toilets"]
  },
  {
    "name": "Unknown Place",
    "description": "No description available",
    "location": "Türkiye/İstanbul",
    "coordinates": {
      "latitude": 41.1163258,
      "longitude": 28.7753939
    },
    "tags": ["toilets"]
  },
  {
    "name": "Büyükzara Şarküteri",
    "description": "No description available",
    "location": "İstanbul",
    "coordinates": {
      "latitude": 41.052051,
      "longitude": 28.9181528
    },
    "tags": []
  },
  {
    "name": "Şişli İlçe Emniyet Müdürlüğü",
    "description": "No description available",
    "location": "Türkiye/İstanbul",
    "coordinates": {
      "latitude": 41.067033,
      "longitude": 28.9949636
    },
    "tags": ["police"]
  },
  {
    "name": "İBB Ekmek Büfesi",
    "description": "No description available",
    "location": "Türkiye/İstanbul",
    "coordinates": {
      "latitude": 41.0149876,
      "longitude": 28.8969024
    },
    "tags": []
  },
  {
    "name": "Kıyı Emniyeti Genel Müdürlüğü Hasdal Yerleşkesi",
    "description": "No description available",
    "location": "Türkiye/İstanbul",
    "coordinates": {
      "latitude": 41.117554,
      "longitude": 28.9417584
    },
    "tags": ["police"]
  },
  {
    "name": "Çağlayan Polis Merkezi Amirliği",
    "description": "No description available",
    "location": "Türkiye/İstanbul",
    "coordinates": {
      "latitude": 41.0713069,
      "longitude": 28.9808729
    },
    "tags": ["police"]
  },
  {
    "name": "Alibeyköy Polis Merkezi",
    "description": "No description available",
    "location": "Türkiye/İstanbul",
    "coordinates": {
      "latitude": 41.0763879,
      "longitude": 28.9443523
    },
    "tags": ["police"]
  },
  {
    "name": "Unknown Place",
    "description": "No description available",
    "location": "Türkiye/İstanbul",
    "coordinates": {
      "latitude": 40.813672,
      "longitude": 29.3077695
    },
    "tags": ["toilets"]
  },
  {
    "name": "Unknown Place",
    "description": "No description available",
    "location": "Türkiye/İstanbul",
    "coordinates": {
      "latitude": 40.8148387,
      "longitude": 29.3030278
    },
    "tags": ["toilets"]
  },
  {
    "name": "Unknown Place",
    "description": "No description available",
    "location": "Türkiye/İstanbul",
    "coordinates": {
      "latitude": 40.8139465,
      "longitude": 29.3123391
    },
    "tags": ["toilets"]
  },
  {
    "name": "Unknown Place",
    "description": "No description available",
    "location": "Türkiye/İstanbul",
    "coordinates": {
      "latitude": 40.8793901,
      "longitude": 29.0702273
    },
    "tags": ["fire_station"]
  },
  {
    "name": "Güngören İlçe Emniyet Müdürlüğü Merter Polis Merkezi",
    "description": "No description available",
    "location": "Türkiye/İstanbul",
    "coordinates": {
      "latitude": 41.0167254,
      "longitude": 28.8843153
    },
    "tags": ["police"]
  },
  {
    "name": "Unknown Place",
    "description": "No description available",
    "location": "Türkiye/İstanbul",
    "coordinates": {
      "latitude": 41.0174155,
      "longitude": 28.8973247
    },
    "tags": ["police"]
  },
  {
    "name": "Akşemsettin İtfaiye İstasyonu",
    "description": "No description available",
    "location": "Türkiye/İstanbul",
    "coordinates": {
      "latitude": 41.0917991,
      "longitude": 28.9172171
    },
    "tags": ["fire_station"]
  },
  {
    "name": "Unknown Place",
    "description": "No description available",
    "location": "Türkiye/İstanbul",
    "coordinates": {
      "latitude": 41.1085837,
      "longitude": 29.0550144
    },
    "tags": ["toilets"]
  },
  {
    "name": "Unknown Place",
    "description": "No description available",
    "location": "Türkiye/İstanbul",
    "coordinates": {
      "latitude": 41.108737,
      "longitude": 29.055112
    },
    "tags": ["toilets"]
  },
  {
    "name": "Unknown Place",
    "description": "No description available",
    "location": "Türkiye/İstanbul",
    "coordinates": {
      "latitude": 40.9988934,
      "longitude": 28.6438133
    },
    "tags": []
  },
  {
    "name": "Unknown Place",
    "description": "No description available",
    "location": "Türkiye/İstanbul",
    "coordinates": {
      "latitude": 40.9757834,
      "longitude": 28.8804872
    },
    "tags": ["toilets"]
  },
  {
    "name": "Unknown Place",
    "description": "No description available",
    "location": "Türkiye/İstanbul",
    "coordinates": {
      "latitude": 40.9793113,
      "longitude": 28.8880626
    },
    "tags": ["toilets"]
  },
  {
    "name": "Unknown Place",
    "description": "No description available",
    "location": "Türkiye/İstanbul",
    "coordinates": {
      "latitude": 40.9924901,
      "longitude": 29.1541589
    },
    "tags": ["police"]
  },
  {
    "name": "Eskipazar Unlu Mamülleri",
    "description": "No description available",
    "location": "Türkiye/İstanbul",
    "coordinates": {
      "latitude": 41.0274107,
      "longitude": 28.6921844
    },
    "tags": []
  },
  {
    "name": "Unknown Place",
    "description": "No description available",
    "location": "Türkiye/İstanbul",
    "coordinates": {
      "latitude": 40.9868774,
      "longitude": 29.2234977
    },
    "tags": ["police"]
  },
  {
    "name": "Sancaktepe Polis Merkezi",
    "description": "No description available",
    "location": "Türkiye/İstanbul",
    "coordinates": {
      "latitude": 40.9858801,
      "longitude": 29.2275465
    },
    "tags": ["police"]
  },
  {
    "name": "Unknown Place",
    "description": "No description available",
    "location": "Türkiye/İstanbul",
    "coordinates": {
      "latitude": 40.974685,
      "longitude": 28.8604846
    },
    "tags": ["toilets"]
  },
  {
    "name": "Unknown Place",
    "description": "No description available",
    "location": "Türkiye/İstanbul",
    "coordinates": {
      "latitude": 41.1080359,
      "longitude": 28.9116454
    },
    "tags": ["police"]
  },
  {
    "name": "Karadeniz Şehit Gökhan Topçu Polis Merkezi",
    "description": "No description available",
    "location": "İstanbul",
    "coordinates": {
      "latitude": 41.0824278,
      "longitude": 28.8819225
    },
    "tags": ["police"]
  },
  {
    "name": "Şehit Mustafa Tezcan Polis Merkezi Amirliği",
    "description": "No description available",
    "location": "Türkiye/İstanbul",
    "coordinates": {
      "latitude": 41.1119136,
      "longitude": 28.8492459
    },
    "tags": ["police"]
  },
  {
    "name": "Unknown Place",
    "description": "No description available",
    "location": "Türkiye/İstanbul",
    "coordinates": {
      "latitude": 41.0199421,
      "longitude": 28.9071838
    },
    "tags": ["police"]
  },
  {
    "name": "Unknown Place",
    "description": "No description available",
    "location": "Türkiye/İstanbul",
    "coordinates": {
      "latitude": 41.4760504,
      "longitude": 28.2971423
    },
    "tags": []
  },
  {
    "name": "Unknown Place",
    "description": "No description available",
    "location": "Türkiye/İstanbul",
    "coordinates": {
      "latitude": 40.9960862,
      "longitude": 29.043251
    },
    "tags": ["toilets"]
  },
  {
    "name": "Unknown Place",
    "description": "No description available",
    "location": "Türkiye/İstanbul",
    "coordinates": {
      "latitude": 41.1344878,
      "longitude": 29.014116
    },
    "tags": ["toilets"]
  },
  {
    "name": "Unknown Place",
    "description": "No description available",
    "location": "Türkiye/İstanbul",
    "coordinates": {
      "latitude": 41.06975,
      "longitude": 28.9206265
    },
    "tags": ["toilets"]
  },
  {
    "name": "Unknown Place",
    "description": "No description available",
    "location": "Türkiye/İstanbul",
    "coordinates": {
      "latitude": 41.0695566,
      "longitude": 28.9215799
    },
    "tags": ["toilets"]
  },
  {
    "name": "Unknown Place",
    "description": "No description available",
    "location": "Türkiye/İstanbul",
    "coordinates": {
      "latitude": 40.8150726,
      "longitude": 29.3114835
    },
    "tags": ["fire_station"]
  },
  {
    "name": "Polis Karakolu",
    "description": "No description available",
    "location": "Türkiye/İstanbul",
    "coordinates": {
      "latitude": 40.9811531,
      "longitude": 28.8574535
    },
    "tags": ["police"]
  },
  {
    "name": "Arnavutköy Polis Merkezi",
    "description": "No description available",
    "location": "İstanbul",
    "coordinates": {
      "latitude": 41.0677916,
      "longitude": 29.044778
    },
    "tags": ["police"]
  },
  {
    "name": "Devriye Ekipler Amirliği",
    "description": "No description available",
    "location": "İstanbul",
    "coordinates": {
      "latitude": 40.9734966,
      "longitude": 29.0929011
    },
    "tags": ["police"]
  },
  {
    "name": "Elmasburnu Tabiat Parkı",
    "description": "No description available",
    "location": "Türkiye/İstanbul",
    "coordinates": {
      "latitude": 41.2282055,
      "longitude": 29.2208597
    },
    "tags": ["nature_reserve"]
  },
  {
    "name": "Mecidiyeköy Meydan Tuvaleti",
    "description": "No description available",
    "location": "Türkiye/İstanbul",
    "coordinates": {
      "latitude": 41.0662031,
      "longitude": 28.9941981
    },
    "tags": ["toilets"]
  },
  {
    "name": "Tuvalet",
    "description": "No description available",
    "location": "Türkiye/İstanbul",
    "coordinates": {
      "latitude": 40.9015443,
      "longitude": 29.152888
    },
    "tags": ["toilets"]
  },
  {
    "name": "Tuvalet",
    "description": "No description available",
    "location": "Türkiye/İstanbul",
    "coordinates": {
      "latitude": 40.8962655,
      "longitude": 29.1646729
    },
    "tags": ["toilets"]
  },
  {
    "name": "Tuvalet",
    "description": "No description available",
    "location": "Türkiye/İstanbul",
    "coordinates": {
      "latitude": 40.8939302,
      "longitude": 29.1689316
    },
    "tags": ["toilets"]
  },
  {
    "name": "Unknown Place",
    "description": "No description available",
    "location": "Türkiye/İstanbul",
    "coordinates": {
      "latitude": 41.0743657,
      "longitude": 28.9653051
    },
    "tags": ["toilets"]
  },
  {
    "name": "Unknown Place",
    "description": "No description available",
    "location": "Türkiye/İstanbul",
    "coordinates": {
      "latitude": 41.0595018,
      "longitude": 29.0362803
    },
    "tags": ["toilets"]
  },
  {
    "name": "Tuvalet",
    "description": "No description available",
    "location": "Türkiye/İstanbul",
    "coordinates": {
      "latitude": 40.8919063,
      "longitude": 29.1721967
    },
    "tags": ["toilets"]
  },
  {
    "name": "Unknown Place",
    "description": "No description available",
    "location": "Türkiye/İstanbul",
    "coordinates": {
      "latitude": 40.9962939,
      "longitude": 28.6446642
    },
    "tags": ["toilets"]
  },
  {
    "name": "Unknown Place",
    "description": "No description available",
    "location": "Türkiye/İstanbul",
    "coordinates": {
      "latitude": 41.0492521,
      "longitude": 28.9187186
    },
    "tags": ["toilets"]
  },
  {
    "name": "Unknown Place",
    "description": "No description available",
    "location": "Türkiye/İstanbul",
    "coordinates": {
      "latitude": 41.0689461,
      "longitude": 29.0571474
    },
    "tags": ["toilets"]
  },
  {
    "name": "Unknown Place",
    "description": "No description available",
    "location": "Türkiye/İstanbul",
    "coordinates": {
      "latitude": 41.2162818,
      "longitude": 29.2533059
    },
    "tags": ["nature_reserve"]
  },
  {
    "name": "Unknown Place",
    "description": "No description available",
    "location": "Türkiye/İstanbul",
    "coordinates": {
      "latitude": 41.024735,
      "longitude": 29.012434
    },
    "tags": ["toilets"]
  },
  {
    "name": "Unknown Place",
    "description": "No description available",
    "location": "Türkiye/İstanbul",
    "coordinates": {
      "latitude": 41.037845,
      "longitude": 28.9961262
    },
    "tags": ["police"]
  },
  {
    "name": "Unknown Place",
    "description": "No description available",
    "location": "Türkiye/İstanbul",
    "coordinates": {
      "latitude": 40.9760655,
      "longitude": 28.7456104
    },
    "tags": ["toilets"]
  },
  {
    "name": "Unknown Place",
    "description": "No description available",
    "location": "Türkiye/İstanbul",
    "coordinates": {
      "latitude": 41.107866,
      "longitude": 28.9120162
    },
    "tags": ["police"]
  },
  {
    "name": "Unknown Place",
    "description": "No description available",
    "location": "Türkiye/İstanbul",
    "coordinates": {
      "latitude": 41.0472146,
      "longitude": 29.0152612
    },
    "tags": ["toilets"]
  },
  {
    "name": "Tarihi Kireçburnu Fırını",
    "description": "No description available",
    "location": "Türkiye/İstanbul",
    "coordinates": {
      "latitude": 41.148424,
      "longitude": 29.0452289
    },
    "tags": []
  },
  {
    "name": "Unknown Place",
    "description": "No description available",
    "location": "Türkiye/İstanbul",
    "coordinates": {
      "latitude": 41.1083457,
      "longitude": 28.8052035
    },
    "tags": ["toilets"]
  },
  {
    "name": "Unknown Place",
    "description": "No description available",
    "location": "Türkiye/İstanbul",
    "coordinates": {
      "latitude": 41.1026648,
      "longitude": 28.8073441
    },
    "tags": ["toilets"]
  },
  {
    "name": "Bay & Bayan Şadırvan WC",
    "description": "No description available",
    "location": "Türkiye/İstanbul",
    "coordinates": {
      "latitude": 41.047831,
      "longitude": 28.9321481
    },
    "tags": ["toilets"]
  },
  {
    "name": "Cağalizade İbrahim Bey Çeşmesi",
    "description": "No description available",
    "location": "Türkiye/İstanbul",
    "coordinates": {
      "latitude": 41.028975,
      "longitude": 28.9366756
    },
    "tags": ["water_point"]
  },
  {
    "name": "Unknown Place",
    "description": "No description available",
    "location": "Türkiye/İstanbul",
    "coordinates": {
      "latitude": 40.9867896,
      "longitude": 29.0341628
    },
    "tags": ["toilets"]
  },
  {
    "name": "Unknown Place",
    "description": "No description available",
    "location": "Türkiye/İstanbul",
    "coordinates": {
      "latitude": 41.1307332,
      "longitude": 29.0335517
    },
    "tags": ["toilets"]
  },
  {
    "name": "Unknown Place",
    "description": "No description available",
    "location": "Türkiye/İstanbul",
    "coordinates": {
      "latitude": 40.9706465,
      "longitude": 28.7232502
    },
    "tags": ["toilets"]
  },
  {
    "name": "Unknown Place",
    "description": "No description available",
    "location": "Türkiye/İstanbul",
    "coordinates": {
      "latitude": 40.9995076,
      "longitude": 28.9529919
    },
    "tags": ["toilets"]
  },
  {
    "name": "Unknown Place",
    "description": "No description available",
    "location": "Türkiye/İstanbul",
    "coordinates": {
      "latitude": 41.1624009,
      "longitude": 28.8741044
    },
    "tags": ["toilets"]
  },
  {
    "name": "Unknown Place",
    "description": "No description available",
    "location": "Türkiye/İstanbul",
    "coordinates": {
      "latitude": 41.1597259,
      "longitude": 28.87373
    },
    "tags": ["toilets"]
  },
  {
    "name": "Unknown Place",
    "description": "No description available",
    "location": "Türkiye/İstanbul",
    "coordinates": {
      "latitude": 41.1913003,
      "longitude": 28.9607793
    },
    "tags": ["toilets"]
  },
  {
    "name": "Unknown Place",
    "description": "No description available",
    "location": "Türkiye/İstanbul",
    "coordinates": {
      "latitude": 41.1933937,
      "longitude": 28.9610306
    },
    "tags": ["toilets"]
  },
  {
    "name": "Unknown Place",
    "description": "No description available",
    "location": "Türkiye/İstanbul",
    "coordinates": {
      "latitude": 40.9797696,
      "longitude": 28.7710088
    },
    "tags": ["toilets"]
  },
  {
    "name": "Unknown Place",
    "description": "No description available",
    "location": "Türkiye/İstanbul",
    "coordinates": {
      "latitude": 40.8316614,
      "longitude": 29.2793892
    },
    "tags": ["toilets"]
  },
  {
    "name": "Unknown Place",
    "description": "No description available",
    "location": "Türkiye/İstanbul",
    "coordinates": {
      "latitude": 40.8316686,
      "longitude": 29.2794768
    },
    "tags": ["toilets"]
  },
  {
    "name": "Unknown Place",
    "description": "No description available",
    "location": "Türkiye/İstanbul",
    "coordinates": {
      "latitude": 41.1855582,
      "longitude": 28.9894059
    },
    "tags": ["toilets"]
  },
  {
    "name": "Unknown Place",
    "description": "No description available",
    "location": "Türkiye/İstanbul",
    "coordinates": {
      "latitude": 41.0303167,
      "longitude": 28.9524533
    },
    "tags": ["police"]
  },
  {
    "name": "Bahçeköy Geyik Üretim İstasyonu",
    "description": "No description available",
    "location": "Türkiye/İstanbul",
    "coordinates": {
      "latitude": 41.1980362,
      "longitude": 28.9546228
    },
    "tags": ["nature_reserve"]
  },
  {
    "name": "Unknown Place",
    "description": "No description available",
    "location": "Türkiye/İstanbul",
    "coordinates": {
      "latitude": 40.883886,
      "longitude": 29.1986204
    },
    "tags": ["toilets"]
  },
  {
    "name": "Ümraniye İftaiye İstasyonu",
    "description": "No description available",
    "location": "Türkiye/İstanbul",
    "coordinates": {
      "latitude": 41.0161328,
      "longitude": 29.1280218
    },
    "tags": ["fire_station"]
  },
  {
    "name": "T.C. Cumhuriyet Polis Merkezi",
    "description": "No description available",
    "location": "Türkiye/İstanbul",
    "coordinates": {
      "latitude": 40.9257827,
      "longitude": 29.1372585
    },
    "tags": ["police"]
  },
  {
    "name": "Arnavutköy Kaymakamlığı İlçe Jandarma Komutanlığı",
    "description": "No description available",
    "location": "Türkiye/İstanbul",
    "coordinates": {
      "latitude": 41.1844171,
      "longitude": 28.7356523
    },
    "tags": ["police"]
  },
  {
    "name": "Maltepe İtfaiyesi",
    "description": "No description available",
    "location": "Türkiye/İstanbul",
    "coordinates": {
      "latitude": 40.9295803,
      "longitude": 29.1451141
    },
    "tags": ["fire_station"]
  },
  {
    "name": "Unknown Place",
    "description": "No description available",
    "location": "Türkiye/İstanbul",
    "coordinates": {
      "latitude": 41.17141,
      "longitude": 28.9566699
    },
    "tags": ["toilets"]
  },
  {
    "name": "Güvercintepe Polis Merkezi",
    "description": "No description available",
    "location": "Türkiye/İstanbul",
    "coordinates": {
      "latitude": 41.0731446,
      "longitude": 28.749916
    },
    "tags": ["police"]
  },
  {
    "name": "Tuvalet",
    "description": "No description available",
    "location": "Türkiye/İstanbul",
    "coordinates": {
      "latitude": 41.0709364,
      "longitude": 28.9437111
    },
    "tags": ["toilets"]
  },
  {
    "name": "Su Çeşmeleri",
    "description": "No description available",
    "location": "Türkiye/İstanbul",
    "coordinates": {
      "latitude": 40.9640498,
      "longitude": 29.2342953
    },
    "tags": ["water_point"]
  },
  {
    "name": "Esenyurt İtfaiye İstasyonu",
    "description": "No description available",
    "location": "Türkiye/İstanbul",
    "coordinates": {
      "latitude": 41.0374084,
      "longitude": 28.6695315
    },
    "tags": ["fire_station"]
  },
  {
    "name": "İstanbul Halk Ekmek",
    "description": "No description available",
    "location": "Türkiye/İstanbul",
    "coordinates": {
      "latitude": 41.0368934,
      "longitude": 28.6693433
    },
    "tags": []
  },
  {
    "name": "Unknown Place",
    "description": "No description available",
    "location": "Türkiye/İstanbul",
    "coordinates": {
      "latitude": 41.0038084,
      "longitude": 28.6689038
    },
    "tags": ["toilets"]
  },
  {
    "name": "Unknown Place",
    "description": "No description available",
    "location": "Türkiye/İstanbul",
    "coordinates": {
      "latitude": 40.9690982,
      "longitude": 28.7936077
    },
    "tags": ["toilets"]
  },
  {
    "name": "Silivri ilçe Emniyet Müdürlüğü",
    "description": "No description available",
    "location": "Türkiye/İstanbul",
    "coordinates": {
      "latitude": 41.0760978,
      "longitude": 28.2491411
    },
    "tags": ["police"]
  },
  {
    "name": "Unknown Place",
    "description": "No description available",
    "location": "Türkiye/İstanbul",
    "coordinates": {
      "latitude": 41.1457437,
      "longitude": 28.776943
    },
    "tags": ["toilets"]
  },
  {
    "name": "Unknown Place",
    "description": "No description available",
    "location": "Türkiye/İstanbul",
    "coordinates": {
      "latitude": 41.1400691,
      "longitude": 28.7590183
    },
    "tags": ["toilets"]
  },
  {
    "name": "Şht. Bülent Üstün Polis Merkezi",
    "description": "No description available",
    "location": "Türkiye/İstanbul",
    "coordinates": {
      "latitude": 40.9952033,
      "longitude": 28.9082183
    },
    "tags": ["police"]
  },
  {
    "name": "Zeytinburnu İlçe Emniyet Müdürlüğü",
    "description": "No description available",
    "location": "Türkiye/İstanbul",
    "coordinates": {
      "latitude": 40.9955322,
      "longitude": 28.9085637
    },
    "tags": ["police"]
  },
  {
    "name": "Unknown Place",
    "description": "No description available",
    "location": "Türkiye/İstanbul",
    "coordinates": {
      "latitude": 40.9952724,
      "longitude": 28.9084248
    },
    "tags": ["police"]
  },
  {
    "name": "Unknown Place",
    "description": "No description available",
    "location": "Türkiye/İstanbul",
    "coordinates": {
      "latitude": 41.1460038,
      "longitude": 28.7732603
    },
    "tags": ["toilets"]
  },
  {
    "name": "Unknown Place",
    "description": "No description available",
    "location": "Türkiye/İstanbul",
    "coordinates": {
      "latitude": 41.0629397,
      "longitude": 28.7180492
    },
    "tags": ["police"]
  },
  {
    "name": "İstanbul Halk Ekmek",
    "description": "No description available",
    "location": "Türkiye/İstanbul",
    "coordinates": {
      "latitude": 41.0593716,
      "longitude": 28.9082455
    },
    "tags": []
  },
  {
    "name": "Gaziosmanpaşa İlçe Emniyet Müdürlüğü",
    "description": "No description available",
    "location": "Türkiye/İstanbul",
    "coordinates": {
      "latitude": 41.0870712,
      "longitude": 28.9012437
    },
    "tags": ["police"]
  },
  {
    "name": "Unknown Place",
    "description": "No description available",
    "location": "Türkiye/İstanbul",
    "coordinates": {
      "latitude": 41.1045366,
      "longitude": 28.8015227
    },
    "tags": ["police"]
  },
  {
    "name": "Silivri İlçe Jandarma Komutanlığı",
    "description": "No description available",
    "location": "Türkiye/İstanbul",
    "coordinates": {
      "latitude": 41.0910435,
      "longitude": 28.2489731
    },
    "tags": ["police"]
  },
  {
    "name": "Unknown Place",
    "description": "No description available",
    "location": "Türkiye/İstanbul",
    "coordinates": {
      "latitude": 41.0869953,
      "longitude": 28.9012343
    },
    "tags": ["police"]
  },
  {
    "name": "İstanbul İtfaiyesi",
    "description": "No description available",
    "location": "Türkiye/İstanbul",
    "coordinates": {
      "latitude": 41.016353,
      "longitude": 28.9537731
    },
    "tags": ["fire_station"]
  },
  {
    "name": "Büyükkılıçlı Jandarma Komutanlığı",
    "description": "No description available",
    "location": "Türkiye/İstanbul",
    "coordinates": {
      "latitude": 41.1615798,
      "longitude": 28.189198
    },
    "tags": ["police"]
  },
  {
    "name": "İstanbul Halk Ekmek",
    "description": "No description available",
    "location": "Türkiye/İstanbul",
    "coordinates": {
      "latitude": 41.0494798,
      "longitude": 28.9291506
    },
    "tags": []
  },
  {
    "name": "Unknown Place",
    "description": "No description available",
    "location": "Türkiye/İstanbul",
    "coordinates": {
      "latitude": 40.9231535,
      "longitude": 29.1654382
    },
    "tags": ["nature_reserve"]
  },
  {
    "name": "Unknown Place",
    "description": "No description available",
    "location": "Türkiye/İstanbul",
    "coordinates": {
      "latitude": 40.9232608,
      "longitude": 29.1643356
    },
    "tags": ["nature_reserve"]
  },
  {
    "name": "Unknown Place",
    "description": "No description available",
    "location": "Türkiye/İstanbul",
    "coordinates": {
      "latitude": 41.1045205,
      "longitude": 28.8018425
    },
    "tags": ["police"]
  },
  {
    "name": "İstanbul Havalimanı İtfaiyesi",
    "description": "No description available",
    "location": "Türkiye/İstanbul",
    "coordinates": {
      "latitude": 41.2491574,
      "longitude": 28.7459324
    },
    "tags": ["fire_station"]
  },
  {
    "name": "Çengelköy Sabancı Polis Merkezi Amirliği",
    "description": "No description available",
    "location": "Türkiye/İstanbul",
    "coordinates": {
      "latitude": 41.0506948,
      "longitude": 29.0523742
    },
    "tags": ["police"]
  },
  {
    "name": "Unknown Place",
    "description": "No description available",
    "location": "Türkiye/İstanbul",
    "coordinates": {
      "latitude": 40.869214,
      "longitude": 29.0801216
    },
    "tags": ["fire_station"]
  },
  {
    "name": "Bahçelievler Kaymakamlık Lojmanı Polis Noktası",
    "description": "No description available",
    "location": "Türkiye/İstanbul",
    "coordinates": {
      "latitude": 41.005386,
      "longitude": 28.866077
    },
    "tags": ["police"]
  },
  {
    "name": "T.C. Bahçelievler Kaymakamlığı İlçe Emniyet Müdürlüğü Şehit Vehbi Erdoğan Polis Merkezi Amirliği",
    "description": "No description available",
    "location": "Türkiye/İstanbul",
    "coordinates": {
      "latitude": 41.0057331,
      "longitude": 28.8652773
    },
    "tags": ["police"]
  },
  {
    "name": "Kömürcü Bendi Tabiat Parkı",
    "description": "No description available",
    "location": "Türkiye/İstanbul",
    "coordinates": {
      "latitude": 41.2061729,
      "longitude": 28.9630854
    },
    "tags": ["nature_reserve"]
  },
  {
    "name": "Unknown Place",
    "description": "No description available",
    "location": "Türkiye/İstanbul",
    "coordinates": {
      "latitude": 41.0942539,
      "longitude": 28.8090612
    },
    "tags": ["toilets"]
  },
  {
    "name": "Avcılar Kaymakamlık Lojmanı Polis Noktası",
    "description": "No description available",
    "location": "Türkiye/İstanbul",
    "coordinates": {
      "latitude": 40.9719195,
      "longitude": 28.7197735
    },
    "tags": ["police"]
  },
  {
    "name": "Gürpınar Polis Merkezi",
    "description": "No description available",
    "location": "Türkiye/İstanbul",
    "coordinates": {
      "latitude": 40.9962026,
      "longitude": 28.6182477
    },
    "tags": ["police"]
  },
  {
    "name": "Büyükçekmece Gölü Doğal Yaşam Parkı",
    "description": "No description available",
    "location": "Türkiye/İstanbul",
    "coordinates": {
      "latitude": 41.0339673,
      "longitude": 28.5567361
    },
    "tags": ["nature_reserve"]
  },
  {
    "name": "İstanbul Sarıyer Feneryolu Yaban Hayatı Geliştirme Sahası",
    "description": "No description available",
    "location": "Türkiye/İstanbul",
    "coordinates": {
      "latitude": 41.2226591,
      "longitude": 29.077681
    },
    "tags": ["nature_reserve"]
  },
  {
    "name": "İstanbul Çatalca Çilingoz Yaban Hayatı Geliştirme Sahası",
    "description": "No description available",
    "location": "Türkiye/İstanbul",
    "coordinates": {
      "latitude": 41.4900657,
      "longitude": 28.174828
    },
    "tags": ["nature_reserve"]
  },
  {
    "name": "Unknown Place",
    "description": "No description available",
    "location": "Türkiye/İstanbul",
    "coordinates": {
      "latitude": 41.0787074,
      "longitude": 28.9973935
    },
    "tags": ["police"]
  },
  {
    "name": "Bentler Tabiat Parkı",
    "description": "No description available",
    "location": "Türkiye/İstanbul",
    "coordinates": {
      "latitude": 41.1883148,
      "longitude": 28.9909534
    },
    "tags": ["nature_reserve"]
  },
  {
    "name": "Irmak Tabiat Parkı",
    "description": "No description available",
    "location": "Türkiye/İstanbul",
    "coordinates": {
      "latitude": 41.1736371,
      "longitude": 28.9582355
    },
    "tags": ["nature_reserve"]
  },
  {
    "name": "Ayvat Bendi Tabiat Parkı",
    "description": "No description available",
    "location": "Türkiye/İstanbul",
    "coordinates": {
      "latitude": 41.2010477,
      "longitude": 28.9236935
    },
    "tags": ["nature_reserve"]
  },
  {
    "name": "Neşet Suyu Tabiat Parkı",
    "description": "No description available",
    "location": "Türkiye/İstanbul",
    "coordinates": {
      "latitude": 41.1850253,
      "longitude": 28.9675454
    },
    "tags": ["nature_reserve"]
  },
  {
    "name": "Fatih Rıfkı Altay Tabiat Parkı",
    "description": "No description available",
    "location": "Türkiye/İstanbul",
    "coordinates": {
      "latitude": 41.1919132,
      "longitude": 28.9646608
    },
    "tags": ["nature_reserve"]
  },
  {
    "name": "Göktürk Göleti Tabiat Parkı",
    "description": "No description available",
    "location": "Türkiye/İstanbul",
    "coordinates": {
      "latitude": 41.1969636,
      "longitude": 28.8788128
    },
    "tags": ["nature_reserve"]
  },
  {
    "name": "Mehmet Akif Ersoy Tabiat Parkı",
    "description": "No description available",
    "location": "Türkiye/İstanbul",
    "coordinates": {
      "latitude": 41.1707074,
      "longitude": 29.0006865
    },
    "tags": ["nature_reserve"]
  },
  {
    "name": "Fatih Ormanı Tabiat Parkı",
    "description": "No description available",
    "location": "Türkiye/İstanbul",
    "coordinates": {
      "latitude": 41.1562658,
      "longitude": 29.0102556
    },
    "tags": ["nature_reserve"]
  },
  {
    "name": "Unknown Place",
    "description": "No description available",
    "location": "Türkiye/İstanbul",
    "coordinates": {
      "latitude": 41.0348458,
      "longitude": 29.1751898
    },
    "tags": ["toilets"]
  }
]
